FHRSID,LocalAuthorityBusinessID,BusinessName,BusinessType,BusinessTypeID,AddressLine1,AddressLine2,AddressLine3,PostCode,RatingValue,RatingKey,RatingDate,LocalAuthorityCode,LocalAuthorityName,Hygiene,Structural,ConfidenceInManagement,NewRatingPending,Longitude,Latitude,AddressLine4
1177669,19/00376/COMM,% Arabica,Restaurant/Cafe/Canteen,1,"BASEMENT AND GROUND FLOOR, 5 KING STREET",COVENT GARDEN,LONDON,WC2E 8HN,4,fhrs_4_en-GB,2019-11-19,533,Westminster,5,0,10,FALSE,,,
1301468,20/00541/COMM,*Eatlife,Other catering premises,7841,,,,,5,fhrs_5_en-GB,2022-03-18,533,Westminster,0,0,5,FALSE,,,
1112323,00214/0034/1/001,1 Rebel,Retailers - other,4613,"THE COLONNADES, 34 PORCHESTER ROAD",,LONDON,W2 6ES,4,fhrs_4_en-GB,2021-08-24,533,Westminster,5,5,10,FALSE,-0.1875248,51.5165486,
1559410,22/00661/COMM,1 Warwick,Restaurant/Cafe/Canteen,1,1-2 WARWICK STREET,,LONDON,W1B 5LR,AwaitingInspection,fhrs_awaitinginspection_en-GB,,533,Westminster,,,,FALSE,-0.1372907,51.5107175,
1540576,22/00545/COMM,1/2 Million,Restaurant/Cafe/Canteen,1,407 OXFORD STREET,,LONDON,W1C 2PA,5,fhrs_5_en-GB,2023-01-16,533,Westminster,5,5,5,FALSE,-0.1508036,51.5140428,
413781,01382/0010/0/002,10 Greek Street,Restaurant/Cafe/Canteen,1,"BASEMENT AND GROUND FLOOR, 10 GREEK STREET",,LONDON,W1D 4DH,5,fhrs_5_en-GB,2022-05-11,533,Westminster,5,5,5,FALSE,-2.9987615,56.6744508,
427714,00159/0100/0/001,100 Club,Restaurant/Cafe/Canteen,1,"BASEMENT, CENTURY HOUSE, 100-102 OXFORD STREET",,LONDON,W1D 1LL,4,fhrs_4_en-GB,2017-02-10,533,Westminster,0,0,10,FALSE,-0.1353078,51.5162165,
412189,00688/0100/0/000,100 Wardour Street,Restaurant/Cafe/Canteen,1,100 WARDOUR STREET,,LONDON,W1F 0TN,5,fhrs_5_en-GB,2022-11-02,533,Westminster,0,0,0,FALSE,,,
1590023,23/00068/COMM,101 West,Retailers - other,4613,101 WESTBOURNE GROVE,,LONDON,W2 4UW,5,fhrs_5_en-GB,2023-03-10,533,Westminster,,,,FALSE,-0.193249,51.5151144,
1209754,19/00523/COMM,104 Restaurant,Restaurant/Cafe/Canteen,1,104 CHEPSTOW ROAD,,LONDON,W2 5QS,5,fhrs_5_en-GB,2022-09-26,533,Westminster,,,,FALSE,-0.1960861,51.5188216,
743933,01123/0106/0/000,106 Baker Street,Restaurant/Cafe/Canteen,1,,,,,4,fhrs_4_en-GB,2023-04-11,533,Westminster,0,5,10,FALSE,,,
413537,01252/0117/0/000,117 Alderney Street,Restaurant/Cafe/Canteen,1,117 ALDERNEY STREET,,LONDON,SW1V 4HE,5,fhrs_5_en-GB,2021-04-19,533,Westminster,5,5,5,FALSE,-0.1423936,51.4890811,
1317137,18/00075/COMM,12 Hay Hill,Restaurant/Cafe/Canteen,1,12 HAY HILL,,LONDON,W1J 8NR,5,fhrs_5_en-GB,2022-07-21,533,Westminster,0,0,0,FALSE,,,
1267306,01379/0122/0/002,122 Great Titchfield Street B&B,Hotel/bed & breakfast/guest house,7842,,,,,5,fhrs_5_en-GB,2021-07-21,533,Westminster,5,5,5,FALSE,,,
1362882,21/00250/COMM,123V,Restaurant/Cafe/Canteen,1,"FENWICKS, 58-63 NEW BOND STREET",,LONDON,W1S 1RJ,5,fhrs_5_en-GB,2021-05-12,533,Westminster,0,0,0,FALSE,-0.1448192,51.513058,
1411839,01576/0180/0/000,180 Pizza,Takeaway/sandwich shop,7844,180 STRAND,,LONDON,WC2R 1EA,5,fhrs_5_en-GB,2022-06-16,533,Westminster,0,0,5,FALSE,-0.1150843,51.5124221,
1553358,22/00610/COMM,1905,Restaurant/Cafe/Canteen,1,40 MORTIMER STREET,,LONDON,W1W 7RQ,AwaitingInspection,fhrs_awaitinginspection_en-GB,,533,Westminster,,,,FALSE,,,
1435813,21/00841/COMM,1989 Clubhouse,Pub/bar/nightclub,7843,17 MERCER STREET,,LONDON,WC2H 9QJ,5,fhrs_5_en-GB,2022-06-27,533,Westminster,5,5,0,FALSE,-0.126367,51.5131694,
1026633,18/00011/COMM,1Rebel,Restaurant/Cafe/Canteen,1,4 KEAN STREET,,LONDON,WC2B 4AS,4,fhrs_4_en-GB,2022-06-28,533,Westminster,0,10,10,FALSE,-0.1183657,51.5134895,
850600,00864/0048/A/000,2 Amici,Restaurant/Cafe/Canteen,1,48A ROCHESTER ROW,,LONDON,SW1P 1JU,3,fhrs_3_en-GB,2022-02-22,533,Westminster,5,10,10,FALSE,-0.1366169,51.4947447,
411269,00283/0008/0/001,2 Veneti,Restaurant/Cafe/Canteen,1,8-10 WIGMORE STREET,,LONDON,W1U 2RD,2,fhrs_2_en-GB,2023-03-16,533,Westminster,5,15,5,FALSE,-0.146726,51.5168561,
1584352,23/00026/COMM,20Ft Fried Chicken,Takeaway/sandwich shop,7844,"MARKET HALL WEST END, 9 HOLLES STREET",,LONDON,W1G 0BD,5,fhrs_5_en-GB,2023-01-25,533,Westminster,0,0,5,FALSE,-0.1447501,51.515467,
1361455,21/00242/COMM,21 Soho,Restaurant/Cafe/Canteen,1,3-5 SUTTON ROW,,LONDON,W1D 4NR,4,fhrs_4_en-GB,2023-03-06,533,Westminster,10,5,5,FALSE,,,
1581017,22/00804/COMM,24 Hours Tobacco,Retailers - other,4613,"GOODYER HOUSE, TACHBROOK STREET",,LONDON,SW1V 2NB,Exempt,fhrs_exempt_en-GB,,533,Westminster,,,,FALSE,-0.135224,51.4903971,
1486567,22/00151/COMM,28-50 Wine Workshop & Kitchen,Restaurant/Cafe/Canteen,1,"GROUND FLOOR, PORTLAND HOUSE, 4 GREAT PORTLAND STREET",,LONDON,W1W 8QJ,3,fhrs_3_en-GB,2022-05-05,533,Westminster,10,10,10,FALSE,-0.1405659,51.5159313,
641285,00513/0015/0/000,28-50 Wineworkshop And Kitchen,Restaurant/Cafe/Canteen,1,15-17 MARYLEBONE LANE,,LONDON,W1U 2NE,2,fhrs_2_en-GB,2022-05-04,533,Westminster,5,15,10,FALSE,-0.1504508,51.5163484,
1406467,21/00599/COMM,3 Henrietta St,Restaurant/Cafe/Canteen,1,3 HENRIETTA STREET,,LONDON,WC2E 8PS,5,fhrs_5_en-GB,2023-03-02,533,Westminster,5,5,0,FALSE,-0.1229274,51.5112979,
413833,01405/0031/0/000,31 Below,Restaurant/Cafe/Canteen,1,31 MARYLEBONE HIGH STREET,,LONDON,W1U 4PP,4,fhrs_4_en-GB,2019-02-18,533,Westminster,0,10,0,FALSE,-0.1515499,51.5201696,
1039247,00101/0034/0/000,34,Restaurant/Cafe/Canteen,1,34 GROSVENOR SQUARE,,LONDON,W1K 2HD,5,fhrs_5_en-GB,2022-03-02,533,Westminster,5,5,0,FALSE,-0.1525879,51.5105548,
988456,01205/0016/0/000,3I,Other catering premises,7841,16 PALACE STREET,,LONDON,SW1E 5JD,5,fhrs_5_en-GB,2019-04-25,533,Westminster,0,0,0,FALSE,-0.14137,51.4983093,
428104,01450/0025/0/000,4 Ur Convenience,Retailers - other,4613,25 MOSCOW ROAD,,LONDON,W2 4AH,2,fhrs_2_en-GB,2022-12-10,533,Westminster,0,15,0,FALSE,-0.1888728,51.5124426,
413795,01382/0040/0/000,40 Greek Street,Restaurant/Cafe/Canteen,1,40 GREEK STREET,,LONDON,W1D 4EB,5,fhrs_5_en-GB,2020-03-14,533,Westminster,0,0,0,FALSE,-0.1304571,51.5132437,
412684,00915/0041/0/001,41,Hotel/bed & breakfast/guest house,7842,41 BUCKINGHAM PALACE ROAD,,LONDON,SW1W 0PP,5,fhrs_5_en-GB,2016-02-17,533,Westminster,0,5,0,FALSE,-0.1434355,51.4981802,
1220998,00585/0045/0/000,45 Park Lane,Hotel/bed & breakfast/guest house,7842,45 PARK LANE,,LONDON,W1K 1PN,5,fhrs_5_en-GB,2021-12-14,533,Westminster,5,5,5,FALSE,,,
594703,12/00093/COMM,5 Hertford Street,Pub/bar/nightclub,7843,2-5 HERTFORD STREET,,LONDON,W1J 7RW,5,fhrs_5_en-GB,2023-03-22,533,Westminster,5,5,0,FALSE,-0.1475896,51.5062314,
414671,08/00090/COMM,50 Kalo,Restaurant/Cafe/Canteen,1,7 NORTHUMBERLAND AVENUE,,LONDON,WC2N 5BY,5,fhrs_5_en-GB,2021-04-28,533,Westminster,5,5,5,FALSE,-0.1267294,51.5071501,
1553352,22/00602/COMM,55 Frith St,Restaurant/Cafe/Canteen,1,55 FRITH STREET,,LONDON,W1D 4SJ,3,fhrs_3_en-GB,2022-10-18,533,Westminster,10,10,10,FALSE,-0.1318864,51.5138869,
941360,16/00064/COMM,76 Dean Street,Restaurant/Cafe/Canteen,1,76 DEAN STREET,,LONDON,W1D 3SQ,5,fhrs_5_en-GB,2022-03-08,533,Westminster,0,5,5,FALSE,-0.133053,51.5139055,
1454818,22/00069/COMM,8 Golden Horses,Pub/bar/nightclub,7843,120-122 HORSEFERRY ROAD,,LONDON,SW1P 2EF,3,fhrs_3_en-GB,2022-04-13,533,Westminster,5,10,10,FALSE,-0.1327183,51.4953122,
412156,00683/0086/0/001,86 St James Limited,Other catering premises,7841,"GROUND, 86 ST JAMES'S STREET",,LONDON,SW1A 1PL,5,fhrs_5_en-GB,2023-01-12,533,Westminster,0,5,0,FALSE,-0.1386974,51.5052003,
1320483,21/00030/COMM,9Kitchens/Bom Ltd,Other catering premises,7841,"AVENUES YOUTH PROJECT, 3-7 THIRD AVENUE",,LONDON,W10 4RS,4,fhrs_4_en-GB,2021-10-04,533,Westminster,5,10,5,FALSE,,,
411284,00284/0070/0/000,A Wong,Restaurant/Cafe/Canteen,1,70-71 WILTON ROAD,,LONDON,SW1V 1DE,5,fhrs_5_en-GB,2022-03-08,533,Westminster,5,0,5,FALSE,-0.1405884,51.4930902,
1349136,21/00163/COMM,A2Dominion Group,Other catering premises,7841,"BEETHOVEN CENTRE, THIRD AVENUE",,LONDON,,3,fhrs_3_en-GB,2023-01-17,533,Westminster,,,,FALSE,,,
414270,01585/0129/0/000,Aaraya Hotel London,Hotel/bed & breakfast/guest house,7842,129 SUSSEX GARDENS,,LONDON,W2 2RX,5,fhrs_5_en-GB,2017-06-28,533,Westminster,5,5,5,FALSE,-0.1718107,51.5152804,
411385,00385/0055/0/001,Abasto,Restaurant/Cafe/Canteen,1,55-57 CONNAUGHT STREET,,LONDON,W2 2BB,3,fhrs_3_en-GB,2022-05-10,533,Westminster,10,10,10,FALSE,-0.1666207,51.5142371,
413974,01486/0001/B/000,Abbey Cafe,Retailers - other,4613,1B NUGENT TERRACE,,LONDON,NW8 9QB,3,fhrs_3_en-GB,2022-08-22,533,Westminster,10,10,10,FALSE,-0.1808619,51.5319136,
428089,01378/0034/0/000,Abbey Community Association,Restaurant/Cafe/Canteen,1,34 GREAT SMITH STREET,,LONDON,SW1P 3BU,4,fhrs_4_en-GB,2023-01-18,533,Westminster,0,10,0,FALSE,-0.1296239,51.4973492,
414267,01585/0121/0/001,Abc Hyde Park Hotel,Hotel/bed & breakfast/guest house,7842,"GROUND FLOOR TO THIRD FLOOR, 121 SUSSEX GARDENS",,LONDON,W2 2RU,5,fhrs_5_en-GB,2023-02-10,533,Westminster,5,5,5,FALSE,-0.1715748,51.5154116,
1537472,00160/0060/0/000,Abercorn Middle School,Restaurant/Cafe/Canteen,1,"ABERCORN SCHOOL, 60 PADDINGTON STREET",,LONDON,W1U 4JA,5,fhrs_5_en-GB,2022-09-06,533,Westminster,0,5,5,FALSE,,,
411299,00292/0028/0/000,Abercorn Place School,Restaurant/Cafe/Canteen,1,"ABERCORN SCHOOL, 28 ABERCORN PLACE",,LONDON,NW8 9XP,5,fhrs_5_en-GB,2022-06-08,533,Westminster,0,5,0,FALSE,-0.1797049,51.532723,
410972,00143/0038/0/000,Abercorn School,Restaurant/Cafe/Canteen,1,38 PORTLAND PLACE,,LONDON,W1B 1JQ,5,fhrs_5_en-GB,2022-09-30,533,Westminster,0,5,0,FALSE,0.2908696,51.4544264,
413158,01066/0248/1/000,Abercorn School,Other catering premises,7841,"ABERCORN SCHOOL, 248 MARYLEBONE ROAD",,LONDON,NW1 6JF,5,fhrs_5_en-GB,2016-06-17,533,Westminster,0,5,0,FALSE,-0.1640176,51.5212647,
427832,00572/0163/0/000,Aberdeen Steak House,Restaurant/Cafe/Canteen,1,163-167 PRAED STREET,,LONDON,W2 1RH,4,fhrs_4_en-GB,2023-03-15,533,Westminster,5,10,5,FALSE,-0.1752986,51.5156404,
428069,01266/0021/0/000,Aberdeen Steak House,Restaurant/Cafe/Canteen,1,21-22 COVENTRY STREET,,LONDON,W1D 7AE,5,fhrs_5_en-GB,2023-03-23,533,Westminster,5,5,5,FALSE,-0.1328625,51.5101076,
413182,01082/0003/0/000,Abokado,Restaurant/Cafe/Canteen,1,"GROUND FLOOR, 3 BROADWAY",,LONDON,SW1H 0AZ,5,fhrs_5_en-GB,2022-11-28,533,Westminster,0,0,0,FALSE,-0.1338136,51.4988278,
1531164,22/00469/COMM,Abol Coffee Co,Other catering premises,7841,"FLAT 50, MARY'S COURT, 4",,LONDON,NW1 6EW,Exempt,fhrs_exempt_en-GB,2022-08-11,533,Westminster,,,,FALSE,,,
411290,00284/0082/0/000,About Thyme Restaurant,Restaurant/Cafe/Canteen,1,82 WILTON ROAD,,LONDON,SW1V 1DL,4,fhrs_4_en-GB,2019-10-08,533,Westminster,0,10,5,FALSE,,,
1520505,22/00389/COMM,Abu Afif,Restaurant/Cafe/Canteen,1,350-352 EDGWARE ROAD,,LONDON,W2 1EA,4,fhrs_4_en-GB,2022-06-15,533,Westminster,10,5,5,FALSE,-0.171357,51.5212085,
1520501,22/00383/COMM,Abu Maher,Takeaway/sandwich shop,7844,"UNIT E, QUEENSWAY MARKET, 23-25 QUEENSWAY",,LONDON,W2 4QJ,AwaitingInspection,fhrs_awaitinginspection_en-GB,,533,Westminster,,,,FALSE,-0.1873758,51.5109447,
1026632,18/00010/COMM,Abuelo,Restaurant/Cafe/Canteen,1,26 SOUTHAMPTON STREET,,LONDON,WC2E 7JA,4,fhrs_4_en-GB,2022-02-08,533,Westminster,5,5,10,FALSE,-0.1226002,51.5111937,
412894,00963/0007/A/000,Acacus,Restaurant/Cafe/Canteen,1,7A DORSET STREET,,LONDON,W1U 6QN,4,fhrs_4_en-GB,2017-10-13,533,Westminster,5,0,10,FALSE,-0.1555595,51.5197561,
804074,15/00227/COMM,Acai Berry,Restaurant/Cafe/Canteen,1,"GROUND FLOOR UNIT G11, KINGLY COURT, KINGLY COURT",,LONDON,W1B 5PW,4,fhrs_4_en-GB,2022-12-12,533,Westminster,,,,FALSE,-0.1387041,51.5124576,
1516058,00688/0130/0/000,Acai Berry The Aviation Boost,Retailers - other,4613,130 WARDOUR STREET,,LONDON,W1F 8ZN,4,fhrs_4_en-GB,2022-12-09,533,Westminster,10,0,10,FALSE,-0.1344765,51.5143418,
1432423,21/00831/COMM,Acai Do Brazil,Takeaway/sandwich shop,7844,"GROUND FLOOR, 2 GEORGE STREET",,LONDON,W1U 3QR,3,fhrs_3_en-GB,2022-03-18,533,Westminster,10,10,10,FALSE,,,
839682,15/00336/COMM,Acca,Other catering premises,7841,"THE ADELPHI, 1-11 JOHN ADAM STREET",,LONDON,WC2N 6HT,5,fhrs_5_en-GB,2016-02-04,533,Westminster,5,5,0,FALSE,-0.1222111,51.5090922,
1388203,00185/0038/0/000,Accent Catering Services @ Arnold House Huxley,Other catering premises,7841,38 MARLBOROUGH PLACE,,LONDON,NW8 0PE,5,fhrs_5_en-GB,2022-02-22,533,Westminster,0,0,0,FALSE,-0.1814532,51.5344407,
412399,00804/2001/2/000,Acorn Nursery,Restaurant/Cafe/Canteen,1,"MOD MAIN BUILDING, HORSE GUARDS AVENUE",,LONDON,SW1A 2HB,5,fhrs_5_en-GB,2022-07-29,533,Westminster,0,0,0,FALSE,-0.1248602,51.504046,
411069,00160/0029/0/002,Ad Food,Retailers - other,4613,"BASEMENT AND GROUND FLOOR, 29 PADDINGTON STREET",,LONDON,W1U 4HA,4,fhrs_4_en-GB,2022-09-24,533,Westminster,0,10,10,FALSE,-0.1558577,51.5205791,
413580,01271/0012/0/000,Adam & Eve,Restaurant/Cafe/Canteen,1,12 BISHOP'S BRIDGE ROAD,,LONDON,W2 6AA,5,fhrs_5_en-GB,2022-05-12,533,Westminster,5,5,5,FALSE,-0.1806509,51.5180437,
427765,00276/0077/A/000,Adam & Eve,Restaurant/Cafe/Canteen,1,77A WELLS STREET,,LONDON,W1T 3QP,5,fhrs_5_en-GB,2020-12-03,533,Westminster,5,5,5,FALSE,-0.1374582,51.5165025,
427802,00512/0081/0/000,Adam & Eve,Restaurant/Cafe/Canteen,1,81 PETTY FRANCE,,LONDON,SW1H 9EX,5,fhrs_5_en-GB,2022-12-29,533,Westminster,5,5,0,FALSE,-0.1356342,51.4994053,
1366256,21/00255/COMM,Adam Health,Retailers - other,4613,74-78 SEYMOUR PLACE,,LONDON,W1H 2EH,5,fhrs_5_en-GB,2021-07-27,533,Westminster,0,0,0,FALSE,-0.1625682,51.5185981,
1568167,22/00703/COMM,Adam'S Catering Limited,Other catering premises,7841,"GROUND FLOOR, 26 STRUTTON GROUND",,LONDON,SW1P 2HR,AwaitingInspection,fhrs_awaitinginspection_en-GB,,533,Westminster,,,,FALSE,-0.1340067,51.4969244,
414283,01585/0153/0/000,Adare Hotel,Hotel/bed & breakfast/guest house,7842,153 SUSSEX GARDENS,,LONDON,W2 2RY,5,fhrs_5_en-GB,2018-03-20,533,Westminster,0,5,5,FALSE,-0.1726076,51.5148162,
414215,01576/0410/0/000,Adelphi Theatre,Restaurant/Cafe/Canteen,1,"GATTI HOUSE, 410 STRAND",,LONDON,WC2R 0NR,5,fhrs_5_en-GB,2019-11-25,533,Westminster,5,5,5,FALSE,-0.1228015,51.5101538,
412536,00859/0054/0/000,Admiral Duncan Public House,Restaurant/Cafe/Canteen,1,54 OLD COMPTON STREET,,LONDON,W1D 4UD,5,fhrs_5_en-GB,2019-11-25,533,Westminster,0,5,5,FALSE,-0.1322732,51.5128859,
414279,01585/0143/0/000,Admiral Hotel,Hotel/bed & breakfast/guest house,7842,"GROUND FLOOR TO THIRD FLOOR, 143 SUSSEX GARDENS",,LONDON,W2 2RY,1,fhrs_1_en-GB,2022-08-17,533,Westminster,10,15,20,FALSE,-0.1722831,51.515,
412687,00915/0052/0/000,Adrian'S,Restaurant/Cafe/Canteen,1,50-52 BUCKINGHAM PALACE ROAD,,LONDON,SW1W 0RN,5,fhrs_5_en-GB,2020-03-13,533,Westminster,5,5,5,FALSE,-0.1449574,51.4968913,
1013746,17/00410/COMM,Advent International,Restaurant/Cafe/Canteen,1,160 VICTORIA STREET,,LONDON,SW1E 5LB,5,fhrs_5_en-GB,2022-06-20,533,Westminster,0,0,0,FALSE,-0.1434928,51.4967745,
411731,00530/0572/0/000,Ahmed'S Halal Bazar,Retailers - other,4613,572 HARROW ROAD,,LONDON,W10 4NJ,1,fhrs_1_en-GB,2022-02-15,533,Westminster,5,15,20,FALSE,-0.2054189,51.5263387,
412923,00980/0020/0/000,Ain'T Nothin' But,Restaurant/Cafe/Canteen,1,20 KINGLY STREET,,LONDON,W1B 5PZ,5,fhrs_5_en-GB,2020-01-29,533,Westminster,5,0,5,FALSE,-0.139533,51.5129833,
412799,00919/0500/A/000,Akash Rest Limited,Restaurant/Cafe/Canteen,1,500A EDGWARE ROAD,,LONDON,W2 1EJ,1,fhrs_1_en-GB,2022-04-25,533,Westminster,15,15,20,FALSE,-0.1760269,51.5244646,
1214662,19/00609/COMM,Akoko,Restaurant/Cafe/Canteen,1,21 BERNERS STREET,,LONDON,W1T 3LP,5,fhrs_5_en-GB,2021-11-17,533,Westminster,0,5,0,FALSE,-0.136752,51.5179121,
412247,00725/0128/0/000,Al Arez 2,Restaurant/Cafe/Canteen,1,128 BROMPTON ROAD,,LONDON,SW3 1JD,4,fhrs_4_en-GB,2023-01-03,533,Westminster,,,,FALSE,-0.1653174,51.4989742,
412735,00919/0103/0/000,Al Arez Cafe,Restaurant/Cafe/Canteen,1,103 EDGWARE ROAD,,LONDON,W2 2HX,5,fhrs_5_en-GB,2022-06-29,533,Westminster,5,5,5,FALSE,-0.1650314,51.5162564,
751054,00919/0132/0/000,Al Arez Express,Restaurant/Cafe/Canteen,1,132 EDGWARE ROAD,,LONDON,W2 2DZ,4,fhrs_4_en-GB,2022-12-20,533,Westminster,,,,FALSE,-0.1648317,51.5165629,
427954,00919/0011/0/000,Al Balad,Restaurant/Cafe/Canteen,1,11 EDGWARE ROAD,,LONDON,W2 2ER,5,fhrs_5_en-GB,2020-02-24,533,Westminster,5,5,5,FALSE,-0.1617184,51.51402,
1499845,22/00265/COMM,Al Balad,Restaurant/Cafe/Canteen,1,60 EDGWARE ROAD,,LONDON,W2 2EH,5,fhrs_5_en-GB,2022-06-08,533,Westminster,0,5,0,FALSE,-0.1621843,51.5148871,
412940,00987/0048/0/000,Al Basha Restaurant,Restaurant/Cafe/Canteen,1,48 KNIGHTSBRIDGE,,LONDON,SW1X 7JN,2,fhrs_2_en-GB,2023-02-14,533,Westminster,10,15,10,FALSE,-0.1576814,51.5025415,
1518682,22/00356/COMM,Al Bustan Restaurant,Restaurant/Cafe/Canteen,1,21 EDGWARE ROAD,,LONDON,W2 2JE,5,fhrs_5_en-GB,2022-07-26,533,Westminster,5,5,5,FALSE,-0.162461,51.5144598,
411397,00397/0004/0/001,Al Duca Restaurant,Restaurant/Cafe/Canteen,1,"BRAY HOUSE, 4-5 DUKE OF YORK STREET",,LONDON,SW1Y 6LA,4,fhrs_4_en-GB,2022-06-07,533,Westminster,5,5,10,FALSE,-0.1363587,51.5081308,
576390,00189/0003/0/000,Al Farawlah Supermarket,Retailers - other,4613,3 PORCHESTER ROAD,,LONDON,W2 5AD,1,fhrs_1_en-GB,2022-05-24,533,Westminster,15,15,20,FALSE,-0.1878573,51.5162398,
1094437,18/00430/COMM,Al Hamra & Blue Garden Restaurant,Restaurant/Cafe/Canteen,1,"BASEMENT, GROUND FLOOR AND MEZZANINE, GRAND BUILDINGS, 1-3 STRAND",,LONDON,WC2N 5RN,5,fhrs_5_en-GB,2019-11-28,533,Westminster,5,5,5,FALSE,,,
411088,00164/0031/0/000,Al Hamra Restaurant,Restaurant/Cafe/Canteen,1,31-33 SHEPHERD MARKET,,LONDON,W1J 7PT,5,fhrs_5_en-GB,2016-06-03,533,Westminster,5,0,5,FALSE,-0.147123,51.5063679,
414057,01512/0092/0/000,Al Kababgi Mezze & Grill,Restaurant/Cafe/Canteen,1,92 QUEENSWAY,,LONDON,W2 3RR,4,fhrs_4_en-GB,2022-06-15,533,Westminster,5,0,10,FALSE,-0.1874328,51.5131397,
568269,00530/0348/0/001,Al Khalil Supermarket,Retailers - other,4613,348 HARROW ROAD,,LONDON,W9 2HP,5,fhrs_5_en-GB,2022-03-23,533,Westminster,0,0,5,FALSE,-0.1940343,51.5229536,
412423,00808/0052/0/000,Al Madina Supermarket,Retailers - other,4613,"GROUND, 52 CRAWFORD STREET",,LONDON,W1H 4JB,5,fhrs_5_en-GB,2022-02-21,533,Westminster,0,5,5,FALSE,,,
1368052,21/00280/COMM,Al Mansoori Grocery And Restaurant,Restaurant/Cafe/Canteen,1,238 EDGWARE ROAD,,LONDON,W2 1DW,1,fhrs_1_en-GB,2023-03-14,533,Westminster,15,15,20,FALSE,-0.1683146,51.5190747,
902400,16/00251/COMM,Al Maskoof,Restaurant/Cafe/Canteen,1,48 KENDAL STREET,,LONDON,W2 2BP,5,fhrs_5_en-GB,2018-01-20,533,Westminster,0,5,5,FALSE,-0.1652602,51.5150972,
412744,00919/0133/0/000,Al Mustafa,Retailers - other,4613,133 EDGWARE ROAD,,LONDON,W2 2HR,2,fhrs_2_en-GB,2022-02-10,533,Westminster,10,15,10,FALSE,-0.1666413,51.517313,
580306,00189/0015/0/000,Al Noor Supermarket,Retailers - other,4613,15-23 PORCHESTER ROAD,,LONDON,W2 5DP,2,fhrs_2_en-GB,2023-01-12,533,Westminster,10,15,10,FALSE,-0.1880271,51.516683,
411901,00601/0051/0/000,Al Sultan,Restaurant/Cafe/Canteen,1,51-52 HERTFORD STREET,,LONDON,W1J 7ST,4,fhrs_4_en-GB,2022-01-24,533,Westminster,0,5,10,FALSE,-0.1478769,51.5062539,
412070,00640/0075/0/000,Al Sultan,Retailers - other,4613,75 FERNHEAD ROAD,,LONDON,W9 3EA,3,fhrs_3_en-GB,2020-09-22,533,Westminster,10,5,10,FALSE,-0.2012192,51.5286484,
411676,00530/0274/0/000,Al Wadi,Retailers - other,4613,274 HARROW ROAD,,LONDON,W2 5ES,3,fhrs_3_en-GB,2022-12-19,533,Westminster,10,10,10,FALSE,-0.1916632,51.5209477,
414611,06/00060/COMM,Albaraka Supermarket,Retailers - other,4613,"RETAIL UNITS, 123-125 EDGWARE ROAD",,LONDON,W2 2HX,3,fhrs_3_en-GB,2016-05-10,533,Westminster,10,5,10,FALSE,-0.1655899,51.5165771,
414285,01585/0155/0/000,Albro House Hotel,Hotel/bed & breakfast/guest house,7842,155 SUSSEX GARDENS,,LONDON,W2 2RY,5,fhrs_5_en-GB,2022-12-31,533,Westminster,5,5,5,FALSE,-0.1726666,51.5147811,
412727,00919/0061/0/000,Al-Dar Restaurant,Restaurant/Cafe/Canteen,1,61 EDGWARE ROAD,,LONDON,W2 2HZ,4,fhrs_4_en-GB,2022-04-14,533,Westminster,0,10,5,FALSE,-0.1638475,51.5154617,
412762,00919/0228/0/002,Al-Dhiyafa Restaurant,Restaurant/Cafe/Canteen,1,228 EDGWARE ROAD,,LONDON,W2 1DW,5,fhrs_5_en-GB,2022-05-10,533,Westminster,0,0,5,FALSE,-0.1680337,51.5188904,
1320495,21/00047/COMM,Aldi,Retailers - supermarkets/hypermarkets,7840,466-490 EDGWARE ROAD,,LONDON,W2 1EJ,5,fhrs_5_en-GB,2022-01-12,533,Westminster,,,,FALSE,,,
412294,00747/0049/0/000,Aldwych Theatre,Restaurant/Cafe/Canteen,1,49 ALDWYCH,,LONDON,WC2B 4DF,5,fhrs_5_en-GB,2019-11-25,533,Westminster,5,5,5,FALSE,-0.1188621,51.5130763,
1402100,01585/0159/0/000,Alexandra Hotel,Hotel/bed & breakfast/guest house,7842,159-161 SUSSEX GARDENS,,LONDON,W2 2RY,4,fhrs_4_en-GB,2015-07-10,533,Westminster,0,10,5,FALSE,-0.1728136,51.5147115,
412442,00814/0002/0/000,Alfred Dunhill Spa,Restaurant/Cafe/Canteen,1,2-2A DAVIES STREET,,LONDON,W1K 3DJ,5,fhrs_5_en-GB,2022-05-04,533,Westminster,5,5,5,FALSE,-0.1471566,51.5108648,
413901,01451/0010/0/000,Alfred Tennyson,Restaurant/Cafe/Canteen,1,10 MOTCOMB STREET,,LONDON,SW1X 8LA,5,fhrs_5_en-GB,2021-11-18,533,Westminster,5,5,5,FALSE,-0.1564857,51.499681,
412535,00859/0052/0/001,Algerian Coffee Stores,Retailers - other,4613,"GROUND FLOOR, 52 OLD COMPTON STREET",,LONDON,W1D 4PB,4,fhrs_4_en-GB,2020-02-11,533,Westminster,5,5,10,FALSE,-3.446507,56.4827721,
1531162,22/00466/COMM,Alhamra Gardens Restaurant,Restaurant/Cafe/Canteen,1,66-70 BAKER STREET,,LONDON,W1U 7DJ,2,fhrs_2_en-GB,2023-01-24,533,Westminster,10,15,10,FALSE,-0.1559968,51.5192774,
413410,01180/0085/0/000,Al-Hayat Mediterranean Food Store,Retailers - other,4613,85 LUPUS STREET,,LONDON,SW1V 3EN,2,fhrs_2_en-GB,2022-08-08,533,Westminster,10,15,10,FALSE,,,
1584351,23/00025/COMM,Ali Baba,School/college/university,7845,"BASEMENT AND GROUND FLOOR, 125 BOSCOBEL STREET",,LONDON,NW8 8PS,AwaitingInspection,fhrs_awaitinginspection_en-GB,,533,Westminster,,,,FALSE,-0.1733295,51.522705,
412060,00638/0330/0/000,Ali Baba Kebab,Restaurant/Cafe/Canteen,1,330 KILBURN LANE,,LONDON,W9 3EF,5,fhrs_5_en-GB,2021-11-29,533,Westminster,5,5,5,FALSE,-0.2051653,51.5327825,
411519,00472/0032/0/001,Ali Baba Restaurant,Restaurant/Cafe/Canteen,1,"FLAT 1, 32 IVOR PLACE",,LONDON,NW1 6DA,5,fhrs_5_en-GB,2022-07-12,533,Westminster,0,5,5,FALSE,-0.1612456,51.5242338,
413765,01380/2018/2/000,Ali'S Cafe Ltd,Restaurant/Cafe/Canteen,1,"GROUND FLOOR, WESTBOURNE PARK GARAGE, GREAT WESTERN ROAD",,LONDON,W9 3NW,4,fhrs_4_en-GB,2023-01-04,533,Westminster,10,10,0,FALSE,-0.2004452,51.521955,
411543,00478/0019/3/000,All Bar One,Restaurant/Cafe/Canteen,1,35-36 BEDFORD STREET,,LONDON,WC2E 9EN,5,fhrs_5_en-GB,2020-01-07,533,Westminster,5,5,5,FALSE,-0.124176,51.5106783,
411651,00517/0005/A/000,All Bar One,Restaurant/Cafe/Canteen,1,5A PICTON PLACE,,LONDON,W1U 1BH,5,fhrs_5_en-GB,2023-01-17,533,Westminster,5,5,0,FALSE,-0.151354,51.5154004,
411246,00271/0006/0/000,All Bar One,Restaurant/Cafe/Canteen,1,6 VILLIERS STREET,,LONDON,WC2N 6NQ,4,fhrs_4_en-GB,2018-06-22,533,Westminster,0,5,10,FALSE,-0.1242794,51.508208,
772757,14/00168/COMM,All Bar One,Pub/bar/nightclub,7843,60 VICTORIA STREET,,LONDON,SW1E 6QW,4,fhrs_4_en-GB,2021-09-23,533,Westminster,10,0,0,FALSE,-0.1368126,51.4977155,
412967,00989/0048/1/014,All Bar One,Restaurant/Cafe/Canteen,1,"CONCESSION, COMMUNICATIONS HOUSE, 48 LEICESTER SQUARE",,LONDON,WC2H 7LT,5,fhrs_5_en-GB,2019-01-22,533,Westminster,5,5,0,FALSE,,,
413503,01217/0289/1/004,All Bar One,Restaurant/Cafe/Canteen,1,"MARCOL HOUSE, 289-293 REGENT STREET",,LONDON,W1B 2HJ,5,fhrs_5_en-GB,2022-09-30,533,Westminster,0,0,0,FALSE,-0.1427758,51.5165239,
413367,01158/0043/0/000,All Day Mini Mart,Retailers - other,4613,43 CRAVEN ROAD,,LONDON,W2 3BX,5,fhrs_5_en-GB,2021-06-11,533,Westminster,5,0,5,FALSE,-0.179237,51.5133815,
1619572,EYKPY6-3Y7SD6-SKE6B3,ALL MART,Retailers - other,4613,44-46 CRANBOURN STREET,,LONDON,WC2H 7AN,AwaitingInspection,fhrs_awaitinginspection_en-GB,,533,Westminster,,,,FALSE,-0.128946,51.5110793,
411809,00567/0001/0/000,All Nations Tropical Foods,Retailers - other,4613,1 PORTNALL ROAD,,LONDON,W9 3BA,4,fhrs_4_en-GB,2023-01-17,533,Westminster,5,10,5,FALSE,-0.2038058,51.5255676,
410793,00008/0049/0/000,All Souls Primary School,Restaurant/Cafe/Canteen,1,49-54 FOLEY STREET,,LONDON,W1W 7JJ,5,fhrs_5_en-GB,2022-04-15,533,Westminster,0,5,0,FALSE,-0.1386045,51.519848,
1609834,23/00186/COMM,Allgoodcoffee,Other catering premises,7841,,,,,AwaitingInspection,fhrs_awaitinginspection_en-GB,,533,Westminster,,,,FALSE,,,
956466,17/00125/COMM,Alliance In Partnership,Restaurant/Cafe/Canteen,1,"INTERNATIONAL COMMUNITY SCHOOL, 21 STAR STREET",,LONDON,W2 1QB,5,fhrs_5_en-GB,2022-11-29,533,Westminster,5,0,0,FALSE,,,
1427801,21/00771/COMM,Allmart,Retailers - other,4613,39-41 VILLIERS STREET,,LONDON,WC2N 6NE,1,fhrs_1_en-GB,2021-12-09,533,Westminster,5,20,10,FALSE,-0.1233529,51.5079594,
428082,01354/0137/0/000,Allsop Arms Public House,Restaurant/Cafe/Canteen,1,137-143 GLOUCESTER PLACE,,LONDON,NW1 5AL,5,fhrs_5_en-GB,2022-05-11,533,Westminster,0,5,5,FALSE,-0.1601843,51.5223107,
908547,16/00326/COMM,Almansoori Cafe,Retailers - other,4613,185 EDGWARE ROAD,,LONDON,W2 1ET,5,fhrs_5_en-GB,2019-11-25,533,Westminster,5,5,5,FALSE,-0.1680413,51.518342,
1382102,21/00408/COMM,Almela Cake,Other catering premises,7841,,,,,5,fhrs_5_en-GB,2022-03-25,533,Westminster,0,0,0,FALSE,,,
1496919,22/00223/COMM,Almost Firangi Cafe,Restaurant/Cafe/Canteen,1,109 WESTBOURNE PARK ROAD,,LONDON,W2 5QL,3,fhrs_3_en-GB,2022-11-08,533,Westminster,10,10,10,FALSE,-0.1964718,51.5189085,
410791,00008/0024/0/003,Almost Saturday,Restaurant/Cafe/Canteen,1,"GROUND FLOOR, 24-25 FOLEY STREET",,LONDON,W1W 6DX,5,fhrs_5_en-GB,2022-08-02,533,Westminster,5,5,5,FALSE,-0.1405416,51.5193571,
1378656,21/00368/COMM,Aloo Tama,Restaurant/Cafe/Canteen,1,18 GREENCOAT ROW,,LONDON,SW1P 1PG,2,fhrs_2_en-GB,2022-03-17,533,Westminster,5,15,10,FALSE,-0.1368589,51.495522,
946307,00743/0044/0/000,Alounak,Restaurant/Cafe/Canteen,1,44 WESTBOURNE GROVE,,LONDON,W2 5SH,5,fhrs_5_en-GB,2022-11-28,533,Westminster,,,,FALSE,-0.1912557,51.5155908,
1048545,18/00108/COMM,Alto By San Carlo,Restaurant/Cafe/Canteen,1,"ROOFTOP RESTAURANT, SELFRIDGES, 400 OXFORD STREET",,LONDON,W1A 1AB,5,fhrs_5_en-GB,2021-10-19,533,Westminster,5,5,5,FALSE,-0.1528138,51.5145871,
720252,14/00125/COMM,Alumni Visitors Lounge & College Caf?,Restaurant/Cafe/Canteen,1,"IMPERIAL COLLEGE BUSINESS SCHOOL, EXHIBITION ROAD",,LONDON,SW7 2AS,5,fhrs_5_en-GB,2022-09-16,533,Westminster,0,0,0,FALSE,-0.1748886,51.4988627,
412272,00743/0075/0/000,Alwaha,Restaurant/Cafe/Canteen,1,75 WESTBOURNE GROVE,,LONDON,W2 4UL,4,fhrs_4_en-GB,2020-08-25,533,Westminster,10,5,5,FALSE,-0.1920485,51.5152253,
412358,00793/0122/0/000,Am To Pm,Retailers - other,4613,122-124 CHIPPENHAM ROAD,,LONDON,W9 2AD,1,fhrs_1_en-GB,2022-10-20,533,Westminster,10,15,20,FALSE,-0.1974105,51.5276188,
1486576,22/00166/COMM,Amalfi Restaurant,Restaurant/Cafe/Canteen,1,25 ARGYLL STREET,,LONDON,W1F 7TU,5,fhrs_5_en-GB,2022-04-14,533,Westminster,0,0,0,FALSE,-0.1410777,51.5146894,
412194,00688/0113/1/000,Amathus Soho,Retailers - other,4613,"HAMMER HOUSE, 113-117 WARDOUR STREET",,LONDON,W1F 0UN,5,fhrs_5_en-GB,2021-04-28,533,Westminster,5,5,5,FALSE,-0.1341461,51.5132574,
414422,01759/0015/0/000,Amaya,Restaurant/Cafe/Canteen,1,14-15 HALKIN ARCADE,,LONDON,SW1X 8JT,5,fhrs_5_en-GB,2022-05-14,533,Westminster,0,5,0,FALSE,-0.157316,51.4991005,
1274504,00761/0010/0/000,Amazonica Restaurant,Restaurant/Cafe/Canteen,1,10 BERKELEY SQUARE,,LONDON,W1J 6AA,4,fhrs_4_en-GB,2022-03-22,533,Westminster,0,0,10,FALSE,-0.144687,51.5095758,
1253780,20/00252/COMM,Ambar Entertainment Limited,Restaurant/Cafe/Canteen,1,"BASEMENT, GROUND FLOOR AND MEZZANINE, 4 KINGDOM STREET",,LONDON,W2 6BD,4,fhrs_4_en-GB,2020-08-13,533,Westminster,0,0,10,FALSE,-0.1827579,51.5194154,
1516078,22/00328/COMM,Amberly Youth Club,Restaurant/Cafe/Canteen,1,"MILLENNIUM CENTRE, 11 CLEARWELL DRIVE",,LONDON,W9 2JZ,4,fhrs_4_en-GB,2022-06-16,533,Westminster,5,0,10,FALSE,-0.1894092,51.5239884,
1454822,22/00074/COMM,American Candy,Retailers - other,4613,37-39 OXFORD STREET,,LONDON,W1D 2DU,4,fhrs_4_en-GB,2022-03-30,533,Westminster,0,10,10,FALSE,,,
1455835,22/00083/COMM,American Candy,Retailers - other,4613,518-520 OXFORD STREET,,LONDON,W1C 1NX,5,fhrs_5_en-GB,2022-02-16,533,Westminster,0,0,0,FALSE,-0.1572315,51.5140451,
1435816,21/00844/COMM,American Candy Shop,Retailers - other,4613,385-389 OXFORD STREET,,LONDON,W1C 2NB,4,fhrs_4_en-GB,2021-12-20,533,Westminster,0,10,10,FALSE,-0.149705,51.5141244,
1494509,22/00195/COMM,American Candy Shop,Retailers - other,4613,5-6 COVENTRY STREET,,LONDON,W1D 6BW,1,fhrs_1_en-GB,2022-06-07,533,Westminster,5,20,20,FALSE,-0.1320978,51.5104821,
1396507,00159/0146/0/003,American Candy World,Retailers - other,4613,146-148 OXFORD STREET,,LONDON,W1D 1NA,Exempt,fhrs_exempt_en-GB,2021-07-28,533,Westminster,,,,FALSE,,,
1427811,21/00786/COMM,American Sweet Shop,Retailers - other,4613,99-103 LONG ACRE,,LONDON,WC2E 9NR,2,fhrs_2_en-GB,2021-11-23,533,Westminster,0,15,10,FALSE,-0.1239296,51.5135621,
1619552,AZJLM6-YQML9L-8WR4TR,Americana,Restaurant/Cafe/Canteen,1,"BASEMENT AND GROUND FLOOR, 11-12 HAYMARKET",,LONDON,SW1Y 4BP,AwaitingInspection,fhrs_awaitinginspection_en-GB,,533,Westminster,,,,FALSE,-0.1316621,51.5088025,
413699,01354/0172/0/000,Americana Hotel,Hotel/bed & breakfast/guest house,7842,172-174 GLOUCESTER PLACE,,LONDON,NW1 6DT,5,fhrs_5_en-GB,2022-05-03,533,Westminster,0,0,0,FALSE,-0.1607118,51.5246031,
1502825,22/00283/COMM,Amethyst,Restaurant/Cafe/Canteen,1,6 SACKVILLE STREET,,LONDON,W1S 3DD,5,fhrs_5_en-GB,2022-05-31,533,Westminster,5,5,5,FALSE,-0.137767,51.5092863,
1499833,22/00250/COMM,Amici,Restaurant/Cafe/Canteen,1,"BASEMENT, 187 WARDOUR STREET",,LONDON,W1F 8ZB,4,fhrs_4_en-GB,2022-09-27,533,Westminster,,,,FALSE,,,
1523780,22/00407/COMM,Amie Wine Studio,Retailers - other,4613,13 ECCLESTON YARD,CITY OF WESTMINSTER,LONDON,SW1W 9AZ,5,fhrs_5_en-GB,2022-07-13,533,Westminster,0,0,0,FALSE,-0.148993,51.4936873,
1136247,19/00197/COMM,Amigos Burgers And Shakes,Restaurant/Cafe/Canteen,1,536-538 HARROW ROAD,,LONDON,W9 3QF,5,fhrs_5_en-GB,2021-11-18,533,Westminster,0,0,0,FALSE,-0.2037928,51.5255314,
411654,00517/0015/0/000,Amjadia Indian Restaurant,Restaurant/Cafe/Canteen,1,"ST JAMES HOUSE, 15-16 PICTON PLACE",,LONDON,W1U 1BW,3,fhrs_3_en-GB,2020-09-23,533,Westminster,10,10,10,FALSE,-0.1510725,51.5152341,
1496931,22/00238/COMM,Amk Food & Wine,Retailers - other,4613,35B QUEENSWAY,,LONDON,W2 4QJ,3,fhrs_3_en-GB,2022-04-30,533,Westminster,5,10,10,FALSE,-0.1875038,51.5113513,
412458,00824/0044/0/000,Amma'S Kitchen @The Rising Sun Public House,Restaurant/Cafe/Canteen,1,44 EBURY BRIDGE ROAD,,LONDON,SW1W 8PZ,4,fhrs_4_en-GB,2023-02-15,533,Westminster,5,5,10,FALSE,-0.1504314,51.4897926,
1489360,22/00170/COMM,Ammos Hyde Park,Restaurant/Cafe/Canteen,1,28 SUSSEX PLACE,,LONDON,W2 2TH,5,fhrs_5_en-GB,2022-04-30,533,Westminster,5,5,5,FALSE,-0.1715403,51.5133967,
411720,00530/0520/0/000,Amnsor Grocery,Retailers - other,4613,"BASEMENT AND GROUND FLOOR, 520 HARROW ROAD",,LONDON,W9 3QF,5,fhrs_5_en-GB,2023-01-04,533,Westminster,0,5,5,FALSE,-0.2032992,51.5252541,
1212874,19/00586/COMM,Amorino,Restaurant/Cafe/Canteen,1,134 EDGWARE ROAD,,LONDON,W2 2DZ,5,fhrs_5_en-GB,2020-06-23,533,Westminster,0,5,5,FALSE,-0.1648705,51.516592,
1079740,18/00312/COMM,Amorino,Takeaway/sandwich shop,7844,21 QUEENSWAY,,LONDON,W2 4QJ,5,fhrs_5_en-GB,2019-11-19,533,Westminster,0,0,0,FALSE,-0.1873758,51.5109447,
412529,00859/0041/0/000,Amorino,Restaurant/Cafe/Canteen,1,41 OLD COMPTON STREET,,LONDON,W1D 6HF,4,fhrs_4_en-GB,2021-11-23,533,Westminster,0,10,10,FALSE,,,
988475,17/00252/COMM,Amorino,Restaurant/Cafe/Canteen,1,55 LONG ACRE,,LONDON,WC2E 9JL,5,fhrs_5_en-GB,2023-05-09,533,Westminster,5,5,0,FALSE,-0.1232959,51.513552,
1214668,20/00010/COMM,Amorino,Restaurant/Cafe/Canteen,1,7 GARRICK STREET,,LONDON,WC2E 9AR,5,fhrs_5_en-GB,2020-02-25,533,Westminster,0,0,0,FALSE,-0.125936,51.511382,
843002,00626/0018/0/000,Amorino Gelato,Restaurant/Cafe/Canteen,1,18 CHARING CROSS ROAD,,LONDON,WC2H 0DT,5,fhrs_5_en-GB,2023-05-12,533,Westminster,5,5,0,FALSE,,,
413862,01415/2001/2/012,Amt Coffee,Restaurant/Cafe/Canteen,1,"MOBILE UNIT, MARYLEBONE STATION, MELCOMBE PLACE",,LONDON,NW1 6JJ,5,fhrs_5_en-GB,2018-11-28,533,Westminster,5,5,0,FALSE,-0.1629782,51.5230919,
1568173,22/00711/COMM,Amzon Fresh Store,Manufacturers/packers,7839,37-39 HORSEFERRY ROAD,,LONDON,SW1P 2AA,AwaitingInspection,fhrs_awaitinginspection_en-GB,,533,Westminster,,,,FALSE,-0.12995153,51.49484364,
1357866,00614/0004/0/001,Andalucia,Restaurant/Cafe/Canteen,1,"BASEMENT AND GROUND FLOOR FRONT, 4 PANTON STREET",,LONDON,SW1Y 4DL,5,fhrs_5_en-GB,2022-06-27,533,Westminster,0,0,5,FALSE,-0.1319166,51.5092742,
411494,00448/0046/0/003,Andrew Edmunds,Restaurant/Cafe/Canteen,1,"BASEMENT AND GROUND FLOOR, 46 LEXINGTON STREET",,LONDON,W1F 0LP,5,fhrs_5_en-GB,2022-07-05,533,Westminster,0,5,5,FALSE,,,
412241,00721/2001/2/000,Angies Ii Free House,Restaurant/Cafe/Canteen,1,"ANGIES FREE HOUSE, 33-35 WOODFIELD PLACE",,LONDON,W9 2BJ,5,fhrs_5_en-GB,2019-11-25,533,Westminster,5,5,5,FALSE,,,
1592656,23/00079/COMM,Angry Crab Shack,Restaurant/Cafe/Canteen,1,19A RUPERT STREET,,LONDON,W1D 6DF,4,fhrs_4_en-GB,2023-03-13,533,Westminster,5,0,10,FALSE,-0.1329864,51.5109548,
411031,00159/0243/0/000,Angus Steak House,Restaurant/Cafe/Canteen,1,241-243 OXFORD STREET,,LONDON,W1D 2LU,5,fhrs_5_en-GB,2021-08-31,533,Westminster,5,5,5,FALSE,-0.1413877,51.5152159,
414372,01652/0020/0/000,Angus Steak House,Restaurant/Cafe/Canteen,1,"BASEMENT AND GROUND FLOOR PART, 20 CRANBOURN STREET",,LONDON,WC2H 7AA,5,fhrs_5_en-GB,2013-01-11,533,Westminster,0,5,5,FALSE,-0.1279723,51.5116303,
412234,00710/0010/0/000,Angus Steak House,Restaurant/Cafe/Canteen,1,"WOODSTOCK HOUSE, 10 WOODSTOCK STREET",,LONDON,W1C 2AJ,5,fhrs_5_en-GB,2020-02-19,533,Westminster,5,5,5,FALSE,-0.1478371,51.5143377,
1431999,21/00825/COMM,Anita Gelato,Retailers - other,4613,4A UPPER ST MARTIN'S LANE,,LONDON,WC2H 9NY,4,fhrs_4_en-GB,2022-06-07,533,Westminster,0,0,10,FALSE,-0.1273405,51.5123489,
1077597,18/00276/COMM,Annabel'S,Restaurant/Cafe/Canteen,1,46 BERKELEY SQUARE,,LONDON,W1J 5AT,5,fhrs_5_en-GB,2022-04-26,533,Westminster,5,5,0,FALSE,-0.1463476,51.5091385,
411486,00446/0025/0/000,Annam Food And Wine,Retailers - other,4613,25 LEINSTER TERRACE,,LONDON,W2 3ET,2,fhrs_2_en-GB,2022-12-06,533,Westminster,10,15,10,FALSE,-0.1832976,51.5116639,
1136218,01217/0158/0/000,Anthropologie,Retailers - other,4613,158 REGENT STREET,,LONDON,W1B 5SW,Exempt,fhrs_exempt_en-GB,2020-07-08,533,Westminster,,,,FALSE,,,
411143,00201/0012/A/000,Antidote,Restaurant/Cafe/Canteen,1,12A NEWBURGH STREET,,LONDON,W1F 7RR,5,fhrs_5_en-GB,2023-03-22,533,Westminster,5,5,5,FALSE,-0.1389006,51.5136477,
1357886,21/00223/COMM,Antika Restaurant,Restaurant/Cafe/Canteen,1,"4 LAUDERDALE PARADE, LAUDERDALE ROAD",,LONDON,W9 1LU,5,fhrs_5_en-GB,2023-04-18,533,Westminster,5,0,0,FALSE,-0.1898039,51.5274836,
861352,16/00155/COMM,Aok Kitchen,Restaurant/Cafe/Canteen,1,52-55 DORSET STREET,,LONDON,W1U 7NH,5,fhrs_5_en-GB,2022-05-12,533,Westminster,0,0,0,FALSE,-0.1548468,51.5195561,
414754,11/00071/COMM,Ap Food Express,Retailers - other,4613,21-22 EMBANKMENT PLACE,,LONDON,WC2N 6NN,1,fhrs_1_en-GB,2021-05-06,533,Westminster,5,20,10,FALSE,-0.1228876,51.5074691,
772710,07/00147/COMM,Apax Partners Worldwide Llp,Restaurant/Cafe/Canteen,1,33 JERMYN STREET,,LONDON,SW1Y 6DN,5,fhrs_5_en-GB,2016-02-04,533,Westminster,5,0,5,FALSE,-0.1359423,51.5087986,
411822,00572/0107/0/001,Apek Pharmacy,Retailers - other,4613,107 PRAED STREET,,LONDON,W2 1NT,5,fhrs_5_en-GB,2019-11-25,533,Westminster,5,5,5,FALSE,-0.1726617,51.5170652,
411439,00413/0015/0/000,Aphrodite Greek Taverna,Restaurant/Cafe/Canteen,1,"BASEMENT AND GROUND FLOOR, 15 HEREFORD ROAD",,LONDON,W2 4AB,5,fhrs_5_en-GB,2022-09-15,533,Westminster,5,5,5,FALSE,-0.1938348,51.5141557,
1317146,20/00591/COMM,Apna Adda,Takeaway/sandwich shop,7844,16A LEICESTER SQUARE,,LONDON,WC2H 7LE,1,fhrs_1_en-GB,2022-12-02,533,Westminster,15,20,10,FALSE,,,
414020,01511/0064/0/000,Apollo Hotel/St Charles Hotel,Hotel/bed & breakfast/guest house,7842,64 QUEENSBOROUGH TERRACE,,LONDON,W2 3SN,Exempt,fhrs_exempt_en-GB,2022-12-10,533,Westminster,,,,FALSE,-0.1849134,51.5112573,
411750,00552/0031/5/000,Apollo Theatre,Restaurant/Cafe/Canteen,1,"APOLLO THEATRE, 31-33 SHAFTESBURY AVENUE",,LONDON,W1D 7EZ,5,fhrs_5_en-GB,2019-11-25,533,Westminster,0,0,0,FALSE,-0.133382,51.5115007,
411280,00284/0017/0/000,Apollo Victoria Theatre,Restaurant/Cafe/Canteen,1,17 WILTON ROAD,,LONDON,SW1V 1LG,5,fhrs_5_en-GB,2023-01-27,533,Westminster,5,5,5,FALSE,-0.1426544,51.4957758,
1474145,00398/0068/0/000,Apricity,Restaurant/Cafe/Canteen,1,68 DUKE STREET,,LONDON,W1K 6JU,5,fhrs_5_en-GB,2022-05-11,533,Westminster,0,0,5,FALSE,,,
428202,09/00109/COMM,Aqua,Restaurant/Cafe/Canteen,1,30 ARGYLL STREET,,LONDON,W1F 7EB,5,fhrs_5_en-GB,2022-03-31,533,Westminster,5,5,5,FALSE,-0.1409379,51.5142286,
915580,16/00399/COMM,Aquavit London,Restaurant/Cafe/Canteen,1,1 CARLTON STREET,,LONDON,SW1Y 4QQ,5,fhrs_5_en-GB,2022-03-08,533,Westminster,0,5,5,FALSE,-0.1334047,51.5088302,
908525,16/00301/COMM,Aramark @ Selfridges,Restaurant/Cafe/Canteen,1,"CONCESSION, SELFRIDGES, 400 OXFORD STREET",,LONDON,W1A 1AB,5,fhrs_5_en-GB,2022-10-14,533,Westminster,5,5,5,FALSE,-0.1528138,51.5145871,
1378650,13/00054/COMM,Aramark @ Wb Film Museum,Other catering premises,7841,45 WELLINGTON STREET,,LONDON,WC2E 7BN,5,fhrs_5_en-GB,2021-08-27,533,Westminster,0,0,0,FALSE,-0.1212253,51.5123857,
413506,01217/0307/0/000,Aramark @University Of Westminster,Other catering premises,7841,307-309 REGENT STREET,,LONDON,W1B 2HW,5,fhrs_5_en-GB,2019-11-18,533,Westminster,0,0,0,FALSE,-0.1433413,51.5167936,
411572,00496/0014/0/000,Aramark Limited,Restaurant/Cafe/Canteen,1,16-18 LITTLE TITCHFIELD STREET,,LONDON,W1W 7BY,5,fhrs_5_en-GB,2019-11-25,533,Westminster,5,5,5,FALSE,-0.1413552,51.518138,
508495,00496/0002/0/000,Aramark Limited,Other catering premises,7841,4-12 LITTLE TITCHFIELD STREET,,LONDON,W1W 7BY,5,fhrs_5_en-GB,2019-11-25,533,Westminster,5,5,5,FALSE,-0.1410789,51.5181966,
772624,01125/2003/2/000,Aramark Limited,Restaurant/Cafe/Canteen,1,"NUTFORD HOUSE, BROWN STREET",,LONDON,W1H 5UL,4,fhrs_4_en-GB,2022-03-08,533,Westminster,5,10,5,FALSE,-0.1630093,51.5169504,
1013744,17/00408/COMM,Aramark Limited,Restaurant/Cafe/Canteen,1,"WHITE FERRY, 1A SUTHERLAND STREET",,LONDON,SW1V 4LD,4,fhrs_4_en-GB,2018-09-13,533,Westminster,0,0,10,FALSE,,,
413703,01357/0009/0/007,Arang Restaurant,Restaurant/Cafe/Canteen,1,"BASEMENT AND GROUND FLOOR, 9 GOLDEN SQUARE",,LONDON,W1F 9HZ,AwaitingInspection,fhrs_awaitinginspection_en-GB,,533,Westminster,,,,FALSE,-0.1364258,51.5117829,
1287886,00943/0001/0/002,Arc Le Salon,Restaurant/Cafe/Canteen,1,"UNIT 2, 1 CURZON STREET",,LONDON,W1J 5HD,5,fhrs_5_en-GB,2020-12-10,533,Westminster,5,5,5,FALSE,,,
1468079,22/00110/COMM,Archetype Coffee,Restaurant/Cafe/Canteen,1,"GROUND FLOOR, 31 RIDING HOUSE STREET",,LONDON,W1W 7DY,5,fhrs_5_en-GB,2022-08-18,533,Westminster,0,5,0,FALSE,-0.1409498,51.5185363,
413896,01450/0014/0/000,Archie Food Store,Retailers - other,4613,14 MOSCOW ROAD,,LONDON,W2 4BT,4,fhrs_4_en-GB,2021-05-25,533,Westminster,5,5,10,FALSE,-0.1884138,51.5127502,
412824,00939/0053/0/000,Archipelago,Restaurant/Cafe/Canteen,1,53 CLEVELAND STREET,,LONDON,W1T 4JJ,5,fhrs_5_en-GB,2022-12-20,533,Westminster,0,5,0,FALSE,-0.1388676,51.5204637,
428020,01092/0018/0/000,Argyll Arms Public House,Restaurant/Cafe/Canteen,1,"GROUND, 18 ARGYLL STREET",,LONDON,W1F 7TP,4,fhrs_4_en-GB,2020-02-28,533,Westminster,0,10,5,FALSE,-0.1414667,51.5150463,
1136234,19/00183/COMM,Argyll News,Retailers - other,4613,20-21A ARGYLL STREET,,LONDON,W1F 7TT,3,fhrs_3_en-GB,2019-10-18,533,Westminster,10,10,10,FALSE,-0.1412259,51.5149436,
1619576,F9L6RV-SHKGRW-AVPQJL,Aries,Restaurant/Cafe/Canteen,1,31 Great Pulteney Street,,London,W1F 1NN,AwaitingInspection,fhrs_awaitinginspection_en-GB,,533,Westminster,,,,FALSE,-0.13607364,51.51209987,United Kingdom
411943,00611/0031/0/000,Arirang Restaurant,Restaurant/Cafe/Canteen,1,31-32 POLAND STREET,,LONDON,W1F 8QT,AwaitingInspection,fhrs_awaitinginspection_en-GB,,533,Westminster,,,,FALSE,-0.1374402,51.515531,
1587807,23/00041/COMM,Ariston Hellenic Eatery,Restaurant/Cafe/Canteen,1,2A WESTBOURNE GROVE,,LONDON,W2 5RA,4,fhrs_4_en-GB,2023-02-14,533,Westminster,5,5,10,FALSE,-0.1887222,51.5158754,
727062,14/00278/COMM,Ark Atwood Primary,Other catering premises,7841,"ARK ATWOOD ACADEMY PRIMARY, AMBERLEY ROAD",,LONDON,W9 2JY,5,fhrs_5_en-GB,2022-04-08,533,Westminster,5,0,0,FALSE,,,
991209,17/00302/COMM,Arket Cafe,Restaurant/Cafe/Canteen,1,224 REGENT STREET,,LONDON,W1B 3BR,5,fhrs_5_en-GB,2022-12-08,533,Westminster,0,5,0,FALSE,-0.1409379,51.5142286,
991183,00849/0027/0/000,Arket Cafe,Restaurant/Cafe/Canteen,1,27-29 LONG ACRE,,LONDON,WC2E 9LA,5,fhrs_5_en-GB,2021-07-15,533,Westminster,5,0,0,FALSE,-0.1248425,51.5123897,
413475,01211/0036/0/001,Army & Navy Club Limted,Restaurant/Cafe/Canteen,1,36-39 PALL MALL,,LONDON,SW1Y 5JN,5,fhrs_5_en-GB,2022-08-31,533,Westminster,0,5,0,FALSE,-0.1359853,51.5063353,
1526578,22/00427/COMM,Arome,Retailers - other,4613,27 DUKE STREET,,LONDON,W1U 1LE,4,fhrs_4_en-GB,2022-08-10,533,Westminster,5,5,10,FALSE,-0.1518016,51.5153805,
1296970,20/00491/COMM,Arome Bakery,Takeaway/sandwich shop,7844,9 MERCER STREET,,LONDON,WC2H 9QJ,3,fhrs_3_en-GB,2022-07-29,533,Westminster,10,10,10,FALSE,-0.1262729,51.513006,
1523771,22/00397/COMM,Arous Dimashiq Limtied,Restaurant/Cafe/Canteen,1,367-369 EDGWARE ROAD,,LONDON,W2 1BS,4,fhrs_4_en-GB,2022-06-24,533,Westminster,5,5,10,FALSE,-0.1740603,51.5224556,
1430931,21/00810/COMM,Arro Coffee,Restaurant/Cafe/Canteen,1,45A CURZON STREET,,LONDON,W1J 7UQ,5,fhrs_5_en-GB,2022-01-11,533,Westminster,5,5,5,FALSE,-0.1465733,51.5067729,
1070784,18/00231/COMM,Arro Coffee,Restaurant/Cafe/Canteen,1,67 CHILTERN STREET,,LONDON,W1U 6NJ,1,fhrs_1_en-GB,2023-02-19,533,Westminster,5,20,10,FALSE,,,
929705,16/00456/COMM,Arro Coffee,Restaurant/Cafe/Canteen,1,77 BISHOP'S BRIDGE ROAD,,LONDON,W2 6BG,5,fhrs_5_en-GB,2022-03-30,533,Westminster,5,5,0,FALSE,-0.1878302,51.5158347,
1062890,18/00183/COMM,Arros Qd,Restaurant/Cafe/Canteen,1,64 EASTCASTLE STREET,,LONDON,W1W 8NQ,5,fhrs_5_en-GB,2022-09-08,533,Westminster,5,0,0,FALSE,-0.137056,51.5166761,
412388,00796/0016/0/000,Art Of Tapas,Retailers - other,4613,16 CHURTON STREET,,LONDON,SW1V 2LL,5,fhrs_5_en-GB,2019-11-05,533,Westminster,0,0,0,FALSE,-0.1387585,51.492036,
1553371,22/00631/COMM,Arte,Manufacturers/packers,7839,36-40 RUPERT STREET,,LONDON,W1D 6DN,AwaitingInspection,fhrs_awaitinginspection_en-GB,,533,Westminster,,,,FALSE,-0.13284163,51.51132547,
1335552,21/00095/COMM,Artisan Amaretti,Other catering premises,7841,,,,,5,fhrs_5_en-GB,2021-03-23,533,Westminster,0,0,5,FALSE,,,
411051,00159/0400/0/004,Artisan Du Chocolat,Retailers - other,4613,"CONCESSION 5, SELFRIDGES, 400 OXFORD STREET",,LONDON,W1A 1AB,5,fhrs_5_en-GB,2020-01-24,533,Westminster,0,0,0,FALSE,-0.1528138,51.5145871,
741318,00351/0052/0/000,Artist Residence,Restaurant/Cafe/Canteen,1,52 CAMBRIDGE STREET,,LONDON,SW1V 4QQ,5,fhrs_5_en-GB,2023-04-19,533,Westminster,0,0,0,FALSE,-0.1449891,51.4904351,
1099879,15/00143/COMM,Asal Supermarket,Retailers - other,4613,"BASEMENT AND GROUND FLOOR, 434 EDGWARE ROAD",,LONDON,W2 1EG,3,fhrs_3_en-GB,2021-07-20,533,Westminster,5,10,10,FALSE,-0.1739793,51.5230388,
1156892,19/00275/COMM,Ashara,Retailers - other,4613,,,,,Exempt,fhrs_exempt_en-GB,,533,Westminster,,,,FALSE,,,
412793,00919/0440/0/000,Ashra News,Retailers - other,4613,440 EDGWARE ROAD,,LONDON,W2 1EG,4,fhrs_4_en-GB,2019-11-25,533,Westminster,10,5,5,FALSE,-0.1741032,51.5231846,
427743,00206/0121/0/000,Ask Italian,Restaurant/Cafe/Canteen,1,121-127 PARK STREET,,LONDON,W1K 7JA,5,fhrs_5_en-GB,2022-10-21,533,Westminster,5,5,5,FALSE,-0.1560651,51.5133073,
427824,00559/0041/0/001,Ask Italian,Restaurant/Cafe/Canteen,1,41-43 SPRING STREET,,LONDON,W2 1JA,5,fhrs_5_en-GB,2023-03-27,533,Westminster,0,5,0,FALSE,-0.1749723,51.5144303,
427970,00943/0028/0/000,Aspinalls Club,Restaurant/Cafe/Canteen,1,28 CURZON STREET,,LONDON,W1J 7TJ,5,fhrs_5_en-GB,2022-10-21,533,Westminster,0,5,5,FALSE,-0.1493843,51.5063946,
797947,01524/0023/0/000,Assa Korean Restaurant,Restaurant/Cafe/Canteen,1,23 ROMILLY STREET,,LONDON,W1D 5AQ,3,fhrs_3_en-GB,2023-03-27,533,Westminster,,,,FALSE,-0.1313382,51.512844,
522113,00355/0039/0/100,Assaggi Restaurant,Restaurant/Cafe/Canteen,1,"BASEMENT TO PART FIRST FLOOR, 39 CHEPSTOW PLACE",,LONDON,W2 4TS,3,fhrs_3_en-GB,2022-06-28,533,Westminster,10,10,10,FALSE,-0.1942107,51.5133972,
411381,00385/0014/0/000,Assal Patisserie,Retailers - other,4613,14 CONNAUGHT STREET,,LONDON,W2 2AF,4,fhrs_4_en-GB,2019-11-25,533,Westminster,10,5,5,FALSE,-0.1653179,51.5147384,
410968,00143/0021/0/001,Association Of Anaesthetists,Restaurant/Cafe/Canteen,1,21 PORTLAND PLACE,,LONDON,W1B 1PY,5,fhrs_5_en-GB,2022-09-30,533,Westminster,0,0,0,FALSE,-0.1451094,51.5193935,
1250887,00666/0108/0/000,Astors Belgravia,Hotel/bed & breakfast/guest house,7842,108 EBURY STREET,,LONDON,,5,fhrs_5_en-GB,2021-11-23,533,Westminster,5,5,5,FALSE,,,
984656,07/00160/COMM,Astors Hotel,Restaurant/Cafe/Canteen,1,110-112 EBURY STREET,,LONDON,SW1W 9QU,4,fhrs_4_en-GB,2019-09-12,533,Westminster,10,5,0,FALSE,-0.1502347,51.4935844,
414455,01812/0008/0/000,Astral Cafe,Restaurant/Cafe/Canteen,1,8 REGENCY PLACE,,LONDON,SW1P 2EB,4,fhrs_4_en-GB,2022-09-15,533,Westminster,10,5,5,FALSE,-0.132589,51.4945997,
1518679,22/00353/COMM,Atalian Servest Food Company,Restaurant/Cafe/Canteen,1,"NOBEL HOUSE, 17 SMITH SQUARE",,LONDON,SW1P 3JR,5,fhrs_5_en-GB,2022-07-20,533,Westminster,5,5,5,FALSE,-0.1261089,51.4955845,
1368056,21/00285/COMM,Atcha West End,Takeaway/sandwich shop,7844,33 NORTH ROW,,LONDON,W1K 6DE,4,fhrs_4_en-GB,2021-06-25,533,Westminster,10,5,5,FALSE,-0.1542075,51.5132691,
414264,01585/0110/0/000,Athena Hotel,Hotel/bed & breakfast/guest house,7842,110-114 SUSSEX GARDENS,,LONDON,W2 1UA,5,fhrs_5_en-GB,2022-06-15,533,Westminster,0,5,5,FALSE,-0.1718237,51.516036,
413897,01450/0016/A/000,Athenian Grocery,Retailers - other,4613,16A MOSCOW ROAD,,LONDON,W2 4BT,4,fhrs_4_en-GB,2022-09-10,533,Westminster,5,5,10,FALSE,-0.1884858,51.5127513,
1371840,21/00319/COMM,Atis Eccleston Yards,Restaurant/Cafe/Canteen,1,1-2 ECCLESTON YARD,CITY OF WESTMINSTER,LONDON,SW1W 9NF,5,fhrs_5_en-GB,2021-06-18,533,Westminster,5,5,5,FALSE,-0.1482824,51.4936151,
1098671,19/00026/COMM,Atkins,Restaurant/Cafe/Canteen,1,"NOVA NORTH, 11 BRESSENDEN PLACE",,LONDON,SW1E 5BY,5,fhrs_5_en-GB,2020-01-31,533,Westminster,0,0,0,FALSE,-0.1430957,51.4977745,
411736,00530/0608/0/000,Atlas Halal Meat,Retailers - other,4613,608 HARROW ROAD,,LONDON,W10 4NJ,4,fhrs_4_en-GB,2020-09-30,533,Westminster,10,0,10,FALSE,-0.2073407,51.5265929,
1073482,18/00262/COMM,Attendant Coffee Roasters,Restaurant/Cafe/Canteen,1,55 DUKE STREET,,LONDON,W1K 5NR,5,fhrs_5_en-GB,2020-08-05,533,Westminster,0,5,5,FALSE,-0.1509466,51.5138651,
915583,16/00402/COMM,Aubaine,Restaurant/Cafe/Canteen,1,129 BAYSWATER ROAD,,LONDON,W2 4RJ,4,fhrs_4_en-GB,2020-02-15,533,Westminster,0,10,5,FALSE,-0.1876821,51.5104908,
618932,13/00274/COMM,Aubaine,Restaurant/Cafe/Canteen,1,7 MOXON STREET,,LONDON,W1U 4EP,5,fhrs_5_en-GB,2023-01-02,533,Westminster,0,5,0,FALSE,-0.1523172,51.5197321,
427981,00965/0031/0/004,Aubaine,Restaurant/Cafe/Canteen,1,"FOURTH FLOOR, 31 DOVER STREET",,LONDON,W1S 4ND,4,fhrs_4_en-GB,2021-11-09,533,Westminster,0,10,5,FALSE,-0.1431668,51.5090391,
893445,16/00208/COMM,Aubaine @ Selfridges,Restaurant/Cafe/Canteen,1,"CONCESSION, SELFRIDGES, 400 OXFORD STREET",,LONDON,W1A 1AB,5,fhrs_5_en-GB,2022-03-14,533,Westminster,0,0,0,FALSE,-0.1528138,51.5145871,
1221001,01265/0022/0/000,Aubaine Deli,Retailers - other,4613,22 THE MARKET,COVENT GARDEN,LONDON,WC2E 8RD,5,fhrs_5_en-GB,2020-08-14,533,Westminster,0,5,5,FALSE,-0.1229392,51.5120625,
411318,00312/0033/0/000,Augustus Harris,Restaurant/Cafe/Canteen,1,33 CATHERINE STREET,,LONDON,WC2B 5JT,5,fhrs_5_en-GB,2016-01-26,533,Westminster,0,5,0,FALSE,-0.1207389,51.5126477,
732364,13/00031/COMM,Aulis,Restaurant/Cafe/Canteen,1,16A ST ANNE'S COURT,,LONDON,W1F 0BG,5,fhrs_5_en-GB,2019-03-27,533,Westminster,0,5,0,FALSE,-0.1343018,51.514384,
1243388,01266/0033/0/001,Auntie Annes,Restaurant/Cafe/Canteen,1,33 COVENTRY STREET,,LONDON,W1D 6BS,4,fhrs_4_en-GB,2020-09-09,533,Westminster,0,0,10,FALSE,-0.1319065,51.5102272,
1056563,18/00152/COMM,Autograph,Restaurant/Cafe/Canteen,1,"GROUND FLOOR, 33 HORSEFERRY ROAD",,LONDON,SW1P 2AA,5,fhrs_5_en-GB,2020-01-23,533,Westminster,0,0,5,FALSE,,,
810154,15/00274/COMM,Autograph At The Foreign & Commonwealth Office,Restaurant/Cafe/Canteen,1,"CANTEEN, FOREIGN & COMMONWEALTH OFFICE, KING CHARLES STREET",,LONDON,SW1A 2FA,4,fhrs_4_en-GB,2022-12-05,533,Westminster,5,10,5,FALSE,-0.1270422,51.502335,
1373294,21/00332/COMM,Ave Mario,Restaurant/Cafe/Canteen,1,15 HENRIETTA STREET,,LONDON,WC2E 8QG,4,fhrs_4_en-GB,2022-09-07,533,Westminster,0,10,5,FALSE,-0.1239105,51.510873,
741326,01232/0003/0/000,Avenues Youth Project,Other catering premises,7841,3 THIRD AVENUE,,LONDON,W10 4RQ,5,fhrs_5_en-GB,2022-10-19,533,Westminster,0,0,0,FALSE,,,
1070787,18/00239/COMM,Avobar,Restaurant/Cafe/Canteen,1,23-24 HENRIETTA STREET,,LONDON,WC2E 8ND,3,fhrs_3_en-GB,2023-01-13,533,Westminster,10,10,10,FALSE,-0.1242801,51.5109958,
413951,01471/0050/0/000,Avon Hotel,Hotel/bed & breakfast/guest house,7842,50 NORFOLK SQUARE,,LONDON,W2 1RT,5,fhrs_5_en-GB,2022-12-21,533,Westminster,5,5,0,FALSE,-0.1727808,51.5166084,
1553353,22/00604/COMM,Ayash,Retailers - other,4613,,,,,5,fhrs_5_en-GB,2022-10-18,533,Westminster,0,0,5,FALSE,,,
1253776,20/00245/COMM,Ayllu,Takeaway/sandwich shop,7844,25 SHELDON SQUARE,LONDON,LONDON,W2 6EY,4,fhrs_4_en-GB,2023-04-05,533,Westminster,0,10,5,FALSE,-0.1789927,51.519142,
411327,00324/0039/0/000,Azan Enterprises,Takeaway/sandwich shop,7844,39 BARROW HILL ROAD,,LONDON,NW8 7AH,3,fhrs_3_en-GB,2023-03-16,533,Westminster,5,10,10,FALSE,-0.1687005,51.5324438,
1619614,P6K18W-7H8T38-0Y3RLF,Azizas supermarket,Retailers - other,4613,391 HARROW ROAD,,LONDON,W9 3NF,3,fhrs_3_en-GB,2023-04-03,533,Westminster,,,,FALSE,-0.2034851,51.5249242,
1592649,00530/0391/3/000,Aziza'S Supermarket,Retailers - other,4613,"BASEMENT AND GROUND FLOOR, 391 HARROW ROAD",,LONDON,W9 3NF,0,fhrs_0_en-GB,2023-01-30,533,Westminster,20,20,20,FALSE,-0.2034851,51.5249242,
412794,00919/0442/0/001,Azmar Restaurant,Restaurant/Cafe/Canteen,1,"BASEMENT AND GROUND FLOOR, 442 EDGWARE ROAD",,LONDON,W2 1EG,3,fhrs_3_en-GB,2023-01-20,533,Westminster,10,10,10,FALSE,-0.1741892,51.523195,
1149533,19/00220/COMM,B Bagel Bakery Bar,Takeaway/sandwich shop,7844,"GROUND FLOOR SOUTH, 54 WARDOUR STREET",,LONDON,W1D 4JF,5,fhrs_5_en-GB,2020-06-04,533,Westminster,0,5,0,FALSE,-0.1330938,51.5125573,
414202,01576/0212/0/001,B K News,Retailers - other,4613,212 STRAND,,LONDON,WC2R 1AP,4,fhrs_4_en-GB,2013-11-20,533,Westminster,0,5,10,FALSE,-0.1130947,51.5131365,
412213,00699/0021/0/000,B P Service Station,Retailers - other,4613,"WELLINGTON ROAD SERVICE STATION, 21-41 WELLINGTON ROAD",,LONDON,NW8 9SQ,5,fhrs_5_en-GB,2019-04-30,533,Westminster,0,5,0,FALSE,-0.1719077,51.5319273,
412098,00666/0064/0/000,B&B Belgravia,Hotel/bed & breakfast/guest house,7842,64-66 EBURY STREET,,LONDON,SW1W 9QD,1,fhrs_1_en-GB,2023-02-09,533,Westminster,20,20,10,FALSE,-0.1491747,51.4945029,
1345366,21/00150/COMM,B_Together,Restaurant/Cafe/Canteen,1,47-51 ST JOHN'S WOOD HIGH STREET,,LONDON,NW8 7NJ,5,fhrs_5_en-GB,2021-08-02,533,Westminster,5,5,5,FALSE,-0.1709026,51.5332605,
1453025,22/00042/COMM,Baaria,Restaurant/Cafe/Canteen,1,76-78 CHARING CROSS ROAD,,LONDON,WC2H 0BD,5,fhrs_5_en-GB,2022-05-01,533,Westminster,5,5,5,FALSE,-0.1286033,51.5126591,
1400838,21/00547/COMM,Bab N Suul,Restaurant/Cafe/Canteen,1,1 GERRARD PLACE,,LONDON,W1D 5PA,5,fhrs_5_en-GB,2022-02-16,533,Westminster,5,5,5,FALSE,-0.1305245,51.5123005,
1136249,19/00199/COMM,Babek Brothers,Mobile caterer,7846,"CONCESSION AT, 5 KINGDOM STREET",,LONDON,,4,fhrs_4_en-GB,2020-07-24,533,Westminster,0,10,5,FALSE,,,
1257280,00143/0029/0/000,Babouch,Restaurant/Cafe/Canteen,1,29 PORTLAND PLACE,,LONDON,W1B 1QB,5,fhrs_5_en-GB,2020-07-08,533,Westminster,0,5,5,FALSE,-0.1456393,51.5198335,
412786,00919/0396/0/000,Babylon Foods Ltd,Retailers - other,4613,396 EDGWARE ROAD,,LONDON,W2 1ED,4,fhrs_4_en-GB,2017-02-10,533,Westminster,0,10,0,FALSE,-0.1727435,51.5222192,
1553355,22/00607/COMM,Bacchanalia,Restaurant/Cafe/Canteen,1,"CONNAUGHT HOUSE, 1-3 MOUNT STREET",,LONDON,W1K 3NB,5,fhrs_5_en-GB,2023-04-13,533,Westminster,5,5,5,FALSE,-0.1476195,51.5104674,
1253760,00289/0003/A/000,Back On Track Coffee,Restaurant/Cafe/Canteen,1,3A WIMPOLE STREET,,LONDON,W1G 9SF,2,fhrs_2_en-GB,2023-02-21,533,Westminster,15,0,10,FALSE,-0.1474476,51.5168316,
1378653,21/00365/COMM,Badiani,Restaurant/Cafe/Canteen,1,2 MERCER WALK,CITY OF WESTMINSTER,LONDON,WC2H 9FA,5,fhrs_5_en-GB,2021-09-01,533,Westminster,0,0,5,FALSE,-0.1257411,51.5132438,
1199180,19/00435/COMM,Badiani Gelato,Restaurant/Cafe/Canteen,1,"ST MARK'S CHURCH, NORTH AUDLEY STREET",,LONDON,W1K 6ZA,5,fhrs_5_en-GB,2021-06-25,533,Westminster,5,5,5,FALSE,,,
1294846,20/00475/COMM,Bafarat Cafe,Restaurant/Cafe/Canteen,1,6 WARWICK STREET,,LONDON,W1B 5LU,5,fhrs_5_en-GB,2022-08-25,533,Westminster,5,5,5,FALSE,-0.1375581,51.5108746,
411635,00515/0195/C/000,Bafta,Restaurant/Cafe/Canteen,1,"BAFTA, 195 PICCADILLY",,LONDON,W1J 9LN,5,fhrs_5_en-GB,2022-03-07,533,Westminster,0,5,5,FALSE,-0.1374175,51.5086692,
1154435,19/00254/COMM,Bafta Piccadilly,Restaurant/Cafe/Canteen,1,"BAFTA, 195 PICCADILLY",,LONDON,W1J 9LN,5,fhrs_5_en-GB,2019-12-10,533,Westminster,5,5,0,FALSE,-0.1374175,51.5086692,
427939,00915/0006/0/000,Bag O Nails,Restaurant/Cafe/Canteen,1,6 BUCKINGHAM PALACE ROAD,,LONDON,SW1W 0PP,4,fhrs_4_en-GB,2022-11-28,533,Westminster,0,10,5,FALSE,-0.1442066,51.4979946,
1109127,19/00092/COMM,Bagel Factory,Takeaway/sandwich shop,7844,175 PRAED STREET,,LONDON,W2 1RH,5,fhrs_5_en-GB,2019-12-10,533,Westminster,0,0,0,FALSE,-0.1753876,51.5155789,
1371835,21/00313/COMM,Bagel Factory,Takeaway/sandwich shop,7844,"UNIT 1, OXFORD CIRCUS STATION, 237 OXFORD STREET",,LONDON,W1D 2LR,4,fhrs_4_en-GB,2022-02-22,533,Westminster,5,10,5,FALSE,,,
413857,01415/2001/2/006,Bagel Factory,Restaurant/Cafe/Canteen,1,"UNIT 6, MARYLEBONE STATION, MELCOMBE PLACE",,LONDON,NW1 6JJ,5,fhrs_5_en-GB,2020-02-17,533,Westminster,5,5,5,FALSE,-0.1629782,51.5230919,
641290,01560/0027/0/000,Bagelicious,Restaurant/Cafe/Canteen,1,27 STRUTTON GROUND,,LONDON,SW1P 2HY,1,fhrs_1_en-GB,2022-08-11,533,Westminster,15,10,20,FALSE,-0.1336069,51.4971879,
772729,13/00030/COMM,Bageriet,Restaurant/Cafe/Canteen,1,24 ROSE STREET,,LONDON,WC2E 9EA,4,fhrs_4_en-GB,2022-11-10,533,Westminster,0,5,10,FALSE,-0.1262023,51.5119168,
1602060,23/00131/COMM,BAHRI Moss,Retailers - other,4613,,,,,AwaitingInspection,fhrs_awaitinginspection_en-GB,,533,Westminster,,,,FALSE,,,
848384,16/00051/COMM,Bake,Takeaway/sandwich shop,7844,9 WARDOUR STREET,,LONDON,W1D 6PF,4,fhrs_4_en-GB,2022-11-25,533,Westminster,5,5,10,FALSE,,,
1221004,11/00057/COMM,Bakealicious Cakes,Other catering premises,7841,,,,,5,fhrs_5_en-GB,2012-01-23,533,Westminster,5,0,5,FALSE,,,
413630,01306/0054/0/001,Baker And Spice,Retailers - other,4613,54-56 ELIZABETH STREET,,LONDON,SW1W 9PB,5,fhrs_5_en-GB,2020-02-10,533,Westminster,0,5,5,FALSE,-0.1512239,51.4940587,
414684,09/00011/COMM,Baker And Spice,Retailers - other,4613,"GROUND FLOOR WEST CONCESSION, SELFRIDGES, 400 OXFORD STREET",,LONDON,W1A 1AB,AwaitingInspection,fhrs_awaitinginspection_en-GB,,533,Westminster,,,,FALSE,-0.1528138,51.5145871,
1250888,01123/0222/0/001,Baker Kiosk,Retailers - other,4613,"GROUND FLOOR WEST, 222 BAKER STREET",,LONDON,NW1 5RT,4,fhrs_4_en-GB,2020-10-21,533,Westminster,5,10,5,FALSE,,,
413286,01123/0202/0/000,Baker St. News & Convenience,Retailers - other,4613,202 BAKER STREET,,LONDON,NW1 5RT,5,fhrs_5_en-GB,2023-05-10,533,Westminster,0,5,5,FALSE,-0.1576123,51.5228189,
427776,00320/0002/0/000,Baker Street Food Station,Restaurant/Cafe/Canteen,1,2 ALLSOP PLACE,,LONDON,NW1 5LF,5,fhrs_5_en-GB,2021-11-10,533,Westminster,5,5,5,FALSE,-0.1578763,51.524136,
1337496,21/00100/COMM,Baking Insanity,Other catering premises,7841,,,,,5,fhrs_5_en-GB,2021-03-17,533,Westminster,0,0,5,FALSE,,,
535877,12/00079/COMM,Baku Bistro,Restaurant/Cafe/Canteen,1,22-24 LANSDOWNE ROW,,LONDON,W1J 8QL,5,fhrs_5_en-GB,2013-03-14,533,Westminster,0,5,0,FALSE,-0.1442209,51.5086332,
1182412,19/00410/COMM,Bal Cakery,Other catering premises,7841,,,,,5,fhrs_5_en-GB,2020-09-17,533,Westminster,0,0,0,FALSE,,,
1243402,20/00183/COMM,Balakona Restaurant,Restaurant/Cafe/Canteen,1,6 DERING STREET,,LONDON,W1S 1AD,5,fhrs_5_en-GB,2023-01-05,533,Westminster,0,0,5,FALSE,-0.1459798,51.5142904,
1157788,19/00294/COMM,Balans Caf?,Restaurant/Cafe/Canteen,1,34 OLD COMPTON STREET,,LONDON,W1D 4TR,4,fhrs_4_en-GB,2022-06-28,533,Westminster,5,10,0,FALSE,,,
412539,00859/0060/0/002,Balans Restaurant,Restaurant/Cafe/Canteen,1,"GROUND FLOOR, 60-62 OLD COMPTON STREET",,LONDON,W1D 4UG,4,fhrs_4_en-GB,2023-04-11,533,Westminster,5,10,5,FALSE,-0.1326895,51.5129285,
414517,04/00235/COMM,Bales College,Restaurant/Cafe/Canteen,1,2J KILBURN LANE,,LONDON,W10 4AA,3,fhrs_3_en-GB,2022-10-19,533,Westminster,10,10,10,FALSE,-0.2157748,51.5284211,
546030,13/00067/COMM,Balthazar,Restaurant/Cafe/Canteen,1,4-6 RUSSELL STREET,,LONDON,WC2B 5HZ,5,fhrs_5_en-GB,2023-02-22,533,Westminster,5,5,5,FALSE,-0.1212947,51.5124498,
414088,01514/0166/0/000,Banana Tree,Restaurant/Cafe/Canteen,1,166-166A RANDOLPH AVENUE,,LONDON,W9 1PG,AwaitingInspection,fhrs_awaitinginspection_en-GB,,533,Westminster,,,,FALSE,-0.185662,51.5297667,
1592653,23/00075/COMM,Banana Tree,Restaurant/Cafe/Canteen,1,34 WELLINGTON STREET,,LONDON,WC2E 7BD,5,fhrs_5_en-GB,2023-04-04,533,Westminster,0,0,0,FALSE,-0.1206473,51.5124215,
412258,00743/0021/0/000,Banana Tree Canteen / Whats Your Katsu,Restaurant/Cafe/Canteen,1,21-23 WESTBOURNE GROVE,,LONDON,W2 4UA,5,fhrs_5_en-GB,2021-07-27,533,Westminster,0,5,0,FALSE,-0.1893126,51.5155249,
412192,00688/0103/0/000,Banana Tree Restaurant / Whats Your Katsu,Restaurant/Cafe/Canteen,1,103-109 WARDOUR STREET,,LONDON,W1F 0UN,5,fhrs_5_en-GB,2023-05-09,533,Westminster,5,5,5,FALSE,-0.1340799,51.5131125,
1212849,01195/0039/0/000,Bancone,Restaurant/Cafe/Canteen,1,39 WILLIAM IV STREET,,LONDON,WC2N 4DD,4,fhrs_4_en-GB,2021-11-24,533,Westminster,0,10,5,FALSE,-0.126598,51.509648,
1214656,19/00600/COMM,Bancone Golden Square,Restaurant/Cafe/Canteen,1,8-10 LOWER JAMES STREET,,LONDON,W1F 9EL,5,fhrs_5_en-GB,2022-03-09,533,Westminster,0,5,5,FALSE,-0.13646,51.5112979,
1199174,00228/0021/0/000,Banh Mi Bay,Restaurant/Cafe/Canteen,1,21 RATHBONE STREET,,LONDON,W1T 1NF,4,fhrs_4_en-GB,2019-10-07,533,Westminster,0,0,10,FALSE,-0.1351879,51.5180941,
772796,15/00101/COMM,Banh Mi Town,Restaurant/Cafe/Canteen,1,29 HANSON STREET,,LONDON,W1W 6TS,3,fhrs_3_en-GB,2022-04-19,533,Westminster,5,10,10,FALSE,-0.1407761,51.5203231,
413872,01419/0004/0/009,Bannatyne Health Club,Restaurant/Cafe/Canteen,1,"LOWER GROUND FLOOR, 4 MILLBANK",,LONDON,SW1P 3JA,5,fhrs_5_en-GB,2020-08-06,533,Westminster,0,0,0,FALSE,-0.1261592,51.4968173,
1531165,22/00471/COMM,Bantof,Restaurant/Cafe/Canteen,1,31 GREAT WINDMILL STREET,,LONDON,W1D 7LP,4,fhrs_4_en-GB,2022-08-29,533,Westminster,5,0,10,FALSE,-0.1347188,51.5115849,
411496,00448/0053/0/000,Bao,Restaurant/Cafe/Canteen,1,53 LEXINGTON STREET,,LONDON,W1F 9AS,5,fhrs_5_en-GB,2022-04-06,533,Westminster,5,5,5,FALSE,-0.1365842,51.5131973,
1576241,22/00748/COMM,Bao James St,Restaurant/Cafe/Canteen,1,56 JAMES STREET,MARYLEBONE,LONDON,W1U 1HF,AwaitingInspection,fhrs_awaitinginspection_en-GB,,533,Westminster,,,,FALSE,-0.1507603,51.5158227,
1083448,18/00345/COMM,Baoziinn,Takeaway/sandwich shop,7844,"MARKET HALL VICTORIA, 191 VICTORIA STREET",,LONDON,SW1E 5NE,5,fhrs_5_en-GB,2023-04-03,533,Westminster,,,,FALSE,-0.1443307,51.4963598,
1209774,19/00550/COMM,Baoziinn,Mobile caterer,7846,"MARKET HALL WEST END, 9 HOLLES STREET",,LONDON,W1G 0BD,5,fhrs_5_en-GB,2020-02-05,533,Westminster,5,5,5,FALSE,-0.1447501,51.515467,
414098,01524/0024/0/000,Baozilnn,Restaurant/Cafe/Canteen,1,24 ROMILLY STREET,,LONDON,W1D 5AH,5,fhrs_5_en-GB,2019-11-04,533,Westminster,0,5,5,FALSE,-0.1312507,51.5128696,
412190,00688/0101/0/004,Bar Bruno,Restaurant/Cafe/Canteen,1,"BASEMENT AND GROUND FLOOR, 101 WARDOUR STREET",,LONDON,W1F 0UG,5,fhrs_5_en-GB,2021-12-06,533,Westminster,5,5,5,FALSE,,,
1396532,21/00524/COMM,Bar Crispin,Restaurant/Cafe/Canteen,1,19 KINGLY STREET,,LONDON,W1B 5PY,3,fhrs_3_en-GB,2022-12-08,533,Westminster,5,10,10,FALSE,-4.246248,55.8566507,
1357881,21/00216/COMM,Bar Des Pres,Restaurant/Cafe/Canteen,1,16 ALBEMARLE STREET,,LONDON,W1S 4HW,5,fhrs_5_en-GB,2022-08-23,533,Westminster,5,5,0,FALSE,-0.1418859,51.5093516,
413657,01333/0022/0/001,Bar Italia,Restaurant/Cafe/Canteen,1,"BASEMENT AND GROUND FLOOR FRONT, 22 FRITH STREET",,LONDON,W1D 4RP,5,fhrs_5_en-GB,2020-07-29,533,Westminster,0,0,5,FALSE,,,
411780,00554/0002/0/006,Bar Remo,Restaurant/Cafe/Canteen,1,"GROUND FLOOR, 2 PRINCES STREET",,LONDON,W1B 2LB,3,fhrs_3_en-GB,2022-10-18,533,Westminster,10,10,10,FALSE,-0.142518,51.5147122,
413570,01266/0013/5/504,Bar Rumba,Restaurant/Cafe/Canteen,1,"GROUND FLOOR UNIT 17D, TROCADERO, 13 COVENTRY STREET",,LONDON,W1D 7ER,4,fhrs_4_en-GB,2020-01-29,533,Westminster,10,5,5,FALSE,,,
413663,01333/0028/0/000,Bar Shu,Restaurant/Cafe/Canteen,1,28 FRITH STREET,,LONDON,W1D 5LF,5,fhrs_5_en-GB,2020-01-17,533,Westminster,0,5,0,FALSE,,,
412519,00859/0023/0/000,Bar Soho,Restaurant/Cafe/Canteen,1,23-25 OLD COMPTON STREET,,LONDON,W1D 5JL,5,fhrs_5_en-GB,2022-11-04,533,Westminster,0,0,0,FALSE,-0.1308766,51.5132054,
741321,00859/0007/0/000,Bar Termini,Restaurant/Cafe/Canteen,1,7 OLD COMPTON STREET,,LONDON,W1D 5JE,5,fhrs_5_en-GB,2019-11-25,533,Westminster,5,5,5,FALSE,,,
1416965,21/00712/COMM,Bar Torelli,Takeaway/sandwich shop,7844,1 OLYMPIA MEWS,,LONDON,W2 3SA,3,fhrs_3_en-GB,2021-11-02,533,Westminster,10,10,10,FALSE,-0.1868392,51.5117547,
412779,00919/0357/0/001,Baraka Piri Piri,Restaurant/Cafe/Canteen,1,"BASEMENT AND GROUND FLOOR, 357 EDGWARE ROAD",,LONDON,W2 1BS,5,fhrs_5_en-GB,2022-02-21,533,Westminster,0,0,0,FALSE,-0.1737793,51.5222713,
412370,00794/0084/0/000,Barakh Bazaar,Retailers - other,4613,84 CHURCH STREET,,LONDON,NW8 8ET,3,fhrs_3_en-GB,2022-11-15,533,Westminster,10,10,10,FALSE,-0.1708412,51.5232867,
1420031,21/00728/COMM,Barbara Sturm,Retailers - other,4613,125 MOUNT STREET,,LONDON,W1K 3NS,Exempt,fhrs_exempt_en-GB,2021-11-08,533,Westminster,,,,FALSE,,,
1320491,21/00040/COMM,Barburrito,Restaurant/Cafe/Canteen,1,"THE LAWN, PADDINGTON STATION, PRAED STREET",,LONDON,W2 1RL,4,fhrs_4_en-GB,2023-02-09,533,Westminster,5,10,5,FALSE,-0.1774148,51.5175078,
1468083,22/00115/COMM,Barclays,Restaurant/Cafe/Canteen,1,46 PARK LANE,,LONDON,W1K 1PN,2,fhrs_2_en-GB,2022-05-20,533,Westminster,0,15,10,FALSE,,,
1474160,22/00149/COMM,Bardo St James'S,Restaurant/Cafe/Canteen,1,6 SUFFOLK PLACE,,LONDON,SW1Y 4HX,5,fhrs_5_en-GB,2022-03-21,533,Westminster,0,5,0,FALSE,-0.1308678,51.5081424,
1435806,01597/0007/0/000,Barlett Mitchell,Restaurant/Cafe/Canteen,1,"THIRD FLOOR NORTH, 7 SWALLOW PLACE",,LONDON,W1B 2AG,AwaitingInspection,fhrs_awaitinginspection_en-GB,,533,Westminster,,,,FALSE,-0.1424075,51.5150656,
427784,00398/0082/0/000,Barley Mow,Pub/bar/nightclub,7843,82 DUKE STREET,,LONDON,W1K 6JF,4,fhrs_4_en-GB,2023-01-09,533,Westminster,10,5,5,FALSE,,,
414439,01767/0104/0/000,Barley Mow Public House,Restaurant/Cafe/Canteen,1,104 HORSEFERRY ROAD,,LONDON,SW1P 2EE,5,fhrs_5_en-GB,2021-07-02,533,Westminster,0,5,0,FALSE,-0.1316507,51.4949985,
414462,01843/0010/0/000,Barrafina,Restaurant/Cafe/Canteen,1,10 ADELAIDE STREET,,LONDON,WC2N 4HZ,5,fhrs_5_en-GB,2022-12-02,533,Westminster,0,0,0,FALSE,-0.1257184,51.5093102,
412866,00953/0026/0/000,Barrafina,Restaurant/Cafe/Canteen,1,26 DEAN STREET,,LONDON,W1D 3LL,5,fhrs_5_en-GB,2022-04-26,533,Westminster,5,5,5,FALSE,,,
546022,00649/0043/0/003,Barrafina,Restaurant/Cafe/Canteen,1,"BASEMENT AND GROUND FLOOR, 43 DRURY LANE",,LONDON,WC2B 5RT,5,fhrs_5_en-GB,2022-04-25,533,Westminster,5,5,5,FALSE,-0.1218962,51.514294,
413262,01123/0001/0/002,Barrcuda Casino,Restaurant/Cafe/Canteen,1,1D BAKER STREET,,LONDON,W1U 8ED,5,fhrs_5_en-GB,2019-12-10,533,Westminster,0,0,0,FALSE,-0.1552459,51.5164599,
411936,00611/0006/0/000,Barrio Central,Restaurant/Cafe/Canteen,1,6 POLAND STREET,,LONDON,W1F 8PS,5,fhrs_5_en-GB,2022-12-08,533,Westminster,5,5,0,FALSE,,,
412613,00901/2001/2/000,Barrow Hill Junior School,Restaurant/Cafe/Canteen,1,"BARROW HILL JUNIOR SCHOOL, BRIDGEMAN STREET",,LONDON,NW8 7AL,5,fhrs_5_en-GB,2020-03-04,533,Westminster,0,5,0,FALSE,-0.1690755,51.5328004,
414296,01588/0012/0/000,Barry House Hotel,Hotel/bed & breakfast/guest house,7842,12 SUSSEX PLACE,,LONDON,W2 2TP,5,fhrs_5_en-GB,2019-11-25,533,Westminster,5,5,5,FALSE,-0.1728467,51.5142444,
414597,05/00181/COMM,Barrys Boot Camp,Restaurant/Cafe/Canteen,1,7A QUEENSWAY,,LONDON,W2 3RR,5,fhrs_5_en-GB,2022-12-31,533,Westminster,5,5,0,FALSE,-0.18747049,51.51159789,
1053902,18/00142/COMM,Barry'S Bootcamp,Takeaway/sandwich shop,7844,16 ECCLESTON YARD,CITY OF WESTMINSTER,LONDON,SW1W 9AZ,5,fhrs_5_en-GB,2020-03-12,533,Westminster,0,0,0,FALSE,-0.1484813,51.4939723,
1496909,01579/0050/0/000,Bartlett Mitchell,Restaurant/Cafe/Canteen,1,50 STRATTON STREET,,LONDON,W1J 8LL,5,fhrs_5_en-GB,2022-06-07,533,Westminster,0,5,0,FALSE,-0.1434483,51.5074339,
414396,01675/4000/0/001,Bartlett Mitchell Ltd,Restaurant/Cafe/Canteen,1,"QUEEN ALEXANDRAS HOUSE, KENSINGTON GORE",,LONDON,SW7 2QT,5,fhrs_5_en-GB,2022-09-21,533,Westminster,5,5,5,FALSE,,,
412421,00808/0045/0/001,Basilico Ltd,Restaurant/Cafe/Canteen,1,"BASEMENT AND GROUND FLOOR, 45 CRAWFORD STREET",,LONDON,W1H 1JX,5,fhrs_5_en-GB,2022-11-01,533,Westminster,5,5,0,FALSE,,,
413288,01123/0208/0/000,Baskin Robbins,Restaurant/Cafe/Canteen,1,208 BAKER STREET,,LONDON,NW1 5RT,5,fhrs_5_en-GB,2022-12-08,533,Westminster,0,5,0,FALSE,-0.1576644,51.5233143,
1013738,14/00173/COMM,Bateel International Uk Limited,Takeaway/sandwich shop,7844,"GROUND FLOOR CONCESSION 3, SELFRIDGES, 400 OXFORD STREET",,LONDON,W1A 1AB,5,fhrs_5_en-GB,2023-01-19,533,Westminster,0,0,0,FALSE,-0.1528138,51.5145871,
414718,10/00063/COMM,Bathurst Deli,Retailers - other,4613,"BASEMENT AND GROUND FLOOR, 3 BATHURST STREET",,LONDON,W2 2SD,4,fhrs_4_en-GB,2022-08-22,533,Westminster,10,5,5,FALSE,-0.1748461,51.5128996,
414442,01767/0124/0/000,Baxter Storey Limited,Restaurant/Cafe/Canteen,1,124-126 HORSEFERRY ROAD,,LONDON,SW1P 2TX,5,fhrs_5_en-GB,2018-09-25,533,Westminster,0,5,0,FALSE,-0.1329185,51.4957021,
412075,00643/0002/0/000,Baxter Storey Limited,Restaurant/Cafe/Canteen,1,2-8 LOUDOUN ROAD,,LONDON,NW8 0NP,5,fhrs_5_en-GB,2022-05-24,533,Westminster,5,0,5,FALSE,-0.1769238,51.534847,
411804,00564/0040/0/000,Baxter Storey Limited,Restaurant/Cafe/Canteen,1,40 PORTMAN SQUARE,,LONDON,W1H 6LT,5,fhrs_5_en-GB,2018-09-28,533,Westminster,0,5,0,FALSE,,,
1454823,22/00077/COMM,Baxter Storey Limited,Restaurant/Cafe/Canteen,1,448 STRAND,,LONDON,WC2R 0QU,5,fhrs_5_en-GB,2022-04-21,533,Westminster,0,0,0,FALSE,-0.125495,51.508785,
1182414,19/00414/COMM,Baxter Storey Limited,Restaurant/Cafe/Canteen,1,"BROADCASTING HOUSE, 2-22 PORTLAND PLACE",,LONDON,W1B 1DJ,5,fhrs_5_en-GB,2022-07-28,533,Westminster,5,0,0,FALSE,-0.1440114,51.5187466,
1073481,18/00261/COMM,Baxter Storey Limited,Restaurant/Cafe/Canteen,1,"EIGHTH FLOOR AND NINTH FLOOR, 3 SHELDON SQUARE",LONDON,LONDON,W2 6PR,5,fhrs_5_en-GB,2019-11-14,533,Westminster,0,5,0,FALSE,-0.1807002,51.5196991,
412935,00987/0001/0/002,Baxter Storey Limited,Restaurant/Cafe/Canteen,1,"FOURTH FLOOR, 1 KNIGHTSBRIDGE",,LONDON,SW1X 7LX,5,fhrs_5_en-GB,2019-11-20,533,Westminster,0,0,0,FALSE,-0.1532572,51.5022021,
414188,01576/0080/0/004,Baxter Storey Limited,Other catering premises,7841,"FOURTH FLOOR, 80 STRAND",,LONDON,,5,fhrs_5_en-GB,2019-03-08,533,Westminster,5,5,5,FALSE,,,
411546,00480/0001/0/001,Baxter Storey Limited,Restaurant/Cafe/Canteen,1,"MORRIS HOUSE, 1 JERMYN STREET",,LONDON,SW1Y 4UH,5,fhrs_5_en-GB,2018-06-26,533,Westminster,0,5,5,FALSE,-0.1337188,51.5096086,
1016800,17/00420/COMM,Baxter Storey Limited,Restaurant/Cafe/Canteen,1,"TENTH FLOOR, ZIG ZAG BUILDING, 70 VICTORIA STREET",,LONDON,SW1E 6SQ,5,fhrs_5_en-GB,2018-12-04,533,Westminster,5,0,0,FALSE,-0.138442,51.4973277,
1177674,19/00381/COMM,BaxterStorey - IWG Victoria,Manufacturers/packers,7839,25 WILTON ROAD,,LONDON,SW1V 1EJ,AwaitingInspection,fhrs_awaitinginspection_en-GB,,533,Westminster,,,,FALSE,-0.1424272,51.4953405,
1302711,00666/0141/0/000,Bayley & Sage,Retailers - other,4613,141 EBURY STREET,,LONDON,SW1W 9QW,5,fhrs_5_en-GB,2021-03-05,533,Westminster,5,0,0,FALSE,-0.1501694,51.4930618,
1518678,22/00352/COMM,Bayley & Sage,Retailers - other,4613,33-34 MARYLEBONE HIGH STREET,,LONDON,W1U 4PT,5,fhrs_5_en-GB,2022-08-08,533,Westminster,0,5,5,FALSE,-0.151516,51.520295,
428120,01512/0099/0/000,Bayswater Arms,Restaurant/Cafe/Canteen,1,99 QUEENSWAY,,LONDON,W2 4QH,5,fhrs_5_en-GB,2023-02-08,533,Westminster,0,0,5,FALSE,-0.1878013,51.5125699,
413998,01499/0008/0/001,Bayswater Inn,Hotel/bed & breakfast/guest house,7842,"GROUND FLOOR, 8-16 PRINCE'S SQUARE",,LONDON,W2 4NT,5,fhrs_5_en-GB,2020-01-31,533,Westminster,5,5,5,FALSE,-0.1920859,51.5128249,
1154414,00603/0099/0/000,Bbc Club,Restaurant/Cafe/Canteen,1,"WOGAN HOUSE, 99 GREAT PORTLAND STREET",,LONDON,W1W 7NY,4,fhrs_4_en-GB,2021-11-24,533,Westminster,5,5,10,FALSE,-0.1426325,51.5193363,
413247,01116/0010/0/000,Be At One,Restaurant/Cafe/Canteen,1,10 BEAK STREET,,LONDON,W1F 9RA,5,fhrs_5_en-GB,2022-09-30,533,Westminster,5,5,0,FALSE,-0.1384539,51.5118781,
412217,00700/0023/0/000,Be At One,Restaurant/Cafe/Canteen,1,23 WELLINGTON STREET,,LONDON,WC2E 7DA,5,fhrs_5_en-GB,2011-10-26,533,Westminster,0,0,5,FALSE,-0.1201987,51.5117668,
412323,00761/0059/0/000,Be At One,Restaurant/Cafe/Canteen,1,59 BERKELEY SQUARE,,LONDON,W1S 4EA,5,fhrs_5_en-GB,2017-03-24,533,Westminster,0,0,0,FALSE,-0.1446859,51.5088923,
1206511,19/00498/COMM,Be At One,Pub/bar/nightclub,7843,94 WIMPOLE STREET,,LONDON,W1G 0EH,5,fhrs_5_en-GB,2020-10-21,533,Westminster,0,5,0,FALSE,-0.147469,51.5159506,
413787,01382/0016/0/000,Be At One Greek Street,Restaurant/Cafe/Canteen,1,16-17 GREEK STREET,,LONDON,W1D 4DR,5,fhrs_5_en-GB,2017-03-02,533,Westminster,0,5,5,FALSE,-0.1306374,51.5141188,
412044,00632/0069/0/001,Be My Wine Ltd,Restaurant/Cafe/Canteen,1,"BASEMENT AND GROUND FLOOR, 69 WESTBOURNE PARK ROAD",,LONDON,W2 5QH,5,fhrs_5_en-GB,2015-03-26,533,Westminster,5,5,5,FALSE,-0.1947889,51.5188196,
1098665,19/00020/COMM,Be Organic Limited,Manufacturers/packers,7839,23 GROSVENOR GARDENS,,LONDON,SW1W 0BP,Exempt,fhrs_exempt_en-GB,,533,Westminster,,,,FALSE,-0.1458636,51.4972834,
414125,01534/0023/0/000,Be@One,Restaurant/Cafe/Canteen,1,23-24 RUSSELL STREET,,LONDON,WC2B 5HF,5,fhrs_5_en-GB,2018-03-22,533,Westminster,0,5,0,FALSE,-0.1211465,51.5128117,
1283986,00243/0111/0/000,Beachcroft House,Hospitals/Childcare/Caring Premises,5,"BEACHCROFT HOUSE, 111 SHIRLAND ROAD",,LONDON,W9 2EL,5,fhrs_5_en-GB,2022-09-05,533,Westminster,5,5,5,FALSE,-0.1921373,51.5260986,
428024,01117/0010/0/000,Bear & Staff Public House,Restaurant/Cafe/Canteen,1,10-12 BEAR STREET,,LONDON,WC2H 7AX,5,fhrs_5_en-GB,2019-09-02,533,Westminster,5,5,5,FALSE,-0.1287248,51.510851,
772751,14/00107/COMM,Beast Restaurant,Restaurant/Cafe/Canteen,1,3 CHAPEL PLACE,,LONDON,W1G 0BG,5,fhrs_5_en-GB,2022-03-24,533,Westminster,0,0,0,FALSE,-0.1469785,51.5152504,
1450593,22/00021/COMM,Beasy,Restaurant/Cafe/Canteen,1,58 GREEK STREET,,LONDON,W1D 3DY,4,fhrs_4_en-GB,2022-03-31,533,Westminster,0,5,10,FALSE,,,
1301455,20/00519/COMM,Beautbakes,Other catering premises,7841,,,,,5,fhrs_5_en-GB,2021-03-19,533,Westminster,5,5,0,FALSE,,,
1435808,21/00836/COMM,Beaver'S Brew,Other catering premises,7841,44 LINCOLN'S INN FIELDS,,LONDON,WC2A 3LY,4,fhrs_4_en-GB,2022-02-14,533,Westminster,0,5,10,FALSE,-0.1168908,51.515095,
1496923,22/00229/COMM,Bedford Street Wines,Retailers - other,4613,33 BEDFORD STREET,,LONDON,WC2E 9ED,5,fhrs_5_en-GB,2022-05-03,533,Westminster,5,5,5,FALSE,-0.1244969,51.5109813,
411512,00471/0009/0/003,Beefsteak Club,Restaurant/Cafe/Canteen,1,"BASEMENT TO FIRST FLOOR, 9 IRVING STREET",,LONDON,WC2H 7AH,5,fhrs_5_en-GB,2023-04-03,533,Westminster,0,0,0,FALSE,,,
1499834,22/00251/COMM,Beeji'S,Retailers - other,4613,,,,,AwaitingInspection,fhrs_awaitinginspection_en-GB,,533,Westminster,,,,FALSE,,,
413110,01056/2004/4/008,Beer House,Restaurant/Cafe/Canteen,1,"UNIT 8, MAIN CONCOURSE VICTORIA STATION, TERMINUS PLACE",,LONDON,SW1V 1JT,5,fhrs_5_en-GB,2023-03-09,533,Westminster,5,5,5,FALSE,-0.1443294,51.4949749,
1559397,22/00644/COMM,Beesante,Importers/Exporters,14,73 NEWMAN STREET,,LONDON,W1T 3EJ,Exempt,fhrs_exempt_en-GB,,533,Westminster,,,,FALSE,-0.1359837,51.5176661,
412979,00992/0023/0/001,Beijing Dumpling,Restaurant/Cafe/Canteen,1,"BASEMENT AND GROUND FLOOR, 23 LISLE STREET",,LONDON,WC2H 7BA,5,fhrs_5_en-GB,2020-12-09,533,Westminster,5,5,5,FALSE,-0.1301315,51.5116917,
1523790,22/00418/COMM,Beirut,Restaurant/Cafe/Canteen,1,71 EDGWARE ROAD,,LONDON,W2 2HZ,1,fhrs_1_en-GB,2022-06-23,533,Westminster,5,15,20,FALSE,-0.1640185,51.5155094,
1007362,17/00368/COMM,Beirut Wok,Mobile caterer,7846,,,,,5,fhrs_5_en-GB,2019-04-11,533,Westminster,0,0,0,FALSE,,,
1531170,22/00477/COMM,Beit El Zaytoun - On The Go,Restaurant/Cafe/Canteen,1,17 KNIGHTSBRIDGE GREEN,,LONDON,SW1X 7QL,AwaitingInspection,fhrs_awaitinginspection_en-GB,,533,Westminster,,,,FALSE,-0.1622465,51.5011743,
410853,00049/0019/0/000,Beiteddine Express,Restaurant/Cafe/Canteen,1,"GROUND FLOOR, 19 CLARGES STREET",,LONDON,W1J 8AG,5,fhrs_5_en-GB,2020-08-12,533,Westminster,0,0,0,FALSE,-0.1454602,51.5072139,
1531167,22/00474/COMM,Bekhal Company Ltd,Takeaway/sandwich shop,7844,125 BOSCOBEL STREET,,LONDON,NW8 8PS,2,fhrs_2_en-GB,2022-08-16,533,Westminster,15,5,10,FALSE,-0.1733295,51.522705,
896542,16/00229/COMM,Bel Canto Restaurant,Restaurant/Cafe/Canteen,1,1-9 LANCASTER GATE,,LONDON,W2 3LG,5,fhrs_5_en-GB,2020-10-23,533,Westminster,0,0,5,FALSE,-0.1774623,51.5116274,
1562758,22/00693/COMM,Belga Fries,Retailers - other,4613,,,,,AwaitingInspection,fhrs_awaitinginspection_en-GB,,533,Westminster,,,,FALSE,,,
941366,17/00008/COMM,Belgrave Restaurant,Restaurant/Cafe/Canteen,1,1 BELGRAVE GARDENS,,LONDON,NW8 0QY,5,fhrs_5_en-GB,2022-10-27,533,Westminster,5,5,5,FALSE,-0.1838286,51.5370674,
1193964,19/00429/COMM,Belgravia Food Fayre,Retailers - other,4613,"SHOP, 65 EATON TERRACE",,LONDON,SW1W 8TN,4,fhrs_4_en-GB,2023-02-08,533,Westminster,5,0,10,FALSE,-0.1530528,51.4930084,
1526572,00404/0007/0/000,Belgravia Village Store,Retailers - other,4613,7 ECCLESTON STREET,,LONDON,SW1W 9LX,5,fhrs_5_en-GB,2023-01-30,533,Westminster,,,,FALSE,-0.1478005,51.4942834,
428165,01652/0001/0/000,Bella Italia,Restaurant/Cafe/Canteen,1,1 CRANBOURN STREET,,LONDON,WC2H 7AJ,5,fhrs_5_en-GB,2020-03-06,533,Westminster,0,0,0,FALSE,-0.1296041,51.5111977,
411514,00471/0010/0/000,Bella Italia,Restaurant/Cafe/Canteen,1,10 IRVING STREET,,LONDON,WC2H 7AT,5,fhrs_5_en-GB,2020-02-19,533,Westminster,5,5,5,FALSE,-0.1287303,51.5100147,
412221,00700/0028/0/000,Bella Italia,Restaurant/Cafe/Canteen,1,28 WELLINGTON STREET,,LONDON,WC2E 7BD,5,fhrs_5_en-GB,2020-01-28,533,Westminster,5,5,5,FALSE,-0.1205092,51.5122754,
414045,01512/0055/0/000,Bella Italia,Restaurant/Cafe/Canteen,1,55-57 QUEENSWAY,,LONDON,W2 4QH,5,fhrs_5_en-GB,2021-08-21,533,Westminster,0,5,0,FALSE,-0.1877406,51.5119215,
411759,00552/0063/0/000,Bella Italia,Restaurant/Cafe/Canteen,1,63 SHAFTESBURY AVENUE,,LONDON,W1D 6LQ,5,fhrs_5_en-GB,2022-05-28,533,Westminster,5,5,5,FALSE,,,
411985,00618/0070/0/000,Bella Italia,Restaurant/Cafe/Canteen,1,"BASEMENT AND GROUND FLOOR, 27 GARRICK STREET",,LONDON,WC2E 9AX,5,fhrs_5_en-GB,2022-12-07,533,Westminster,5,5,0,FALSE,,,
412487,00848/0016/0/001,Bella Italia,Restaurant/Cafe/Canteen,1,"FRONT RIGHT, 16-17 LONDON STREET",,LONDON,W2 1HL,4,fhrs_4_en-GB,2022-03-22,533,Westminster,5,5,10,FALSE,-0.17399357,51.51520056,
428122,01512/0108/0/000,Bella Italia,Restaurant/Cafe/Canteen,1,,,,,5,fhrs_5_en-GB,2019-02-13,533,Westminster,0,5,0,FALSE,,,
785201,01576/0065/3/005,Bella Italia,Restaurant/Cafe/Canteen,1,"UNIT 5, 65-72 STRAND",,LONDON,WC2N 5LR,5,fhrs_5_en-GB,2022-05-04,533,Westminster,0,0,0,FALSE,-0.1227317,51.509748,
413330,01137/0018/0/000,Bellamy'S Restaurant And Delicatessen,Restaurant/Cafe/Canteen,1,18-18A BRUTON PLACE,,LONDON,W1J 6LY,5,fhrs_5_en-GB,2022-03-24,533,Westminster,0,0,0,FALSE,-0.1445733,51.5113096,
414261,01585/0104/0/000,Belmont Hotel,Hotel/bed & breakfast/guest house,7842,"HOTEL KITCHEN, 104 SUSSEX GARDENS",,LONDON,W2 1UH,5,fhrs_5_en-GB,2016-02-15,533,Westminster,0,5,5,FALSE,-0.171411,51.5162633,
1226827,20/00099/COMM,Belong Oxford St/Game,Retailers - other,4613,318 OXFORD STREET,,LONDON,W1C 1HF,5,fhrs_5_en-GB,2021-05-04,533,Westminster,5,0,0,FALSE,-0.1463592,51.5152406,
1523774,22/00400/COMM,Below Stone Nest,Pub/bar/nightclub,7843,136 SHAFTESBURY AVENUE,,LONDON,W1D 5EZ,3,fhrs_3_en-GB,2022-06-22,533,Westminster,10,10,10,FALSE,-0.1293019,51.5129465,
956454,17/00113/COMM,Belsize Cake Shop,Other catering premises,7841,,,,,5,fhrs_5_en-GB,2020-08-17,533,Westminster,5,5,0,FALSE,,,
413952,01471/0052/0/000,Belvedere Hotel,Hotel/bed & breakfast/guest house,7842,52-54 NORFOLK SQUARE,,LONDON,W2 1RT,4,fhrs_4_en-GB,2012-05-16,533,Westminster,0,10,5,FALSE,-0.1727214,51.5166524,
988461,17/00235/COMM,Ben And Jerrys,Takeaway/sandwich shop,7844,"BASEMENT AND GROUND FLOOR, 74 WARDOUR STREET",,LONDON,W1F 0TE,5,fhrs_5_en-GB,2023-01-10,533,Westminster,0,0,0,FALSE,,,
1502824,22/00280/COMM,Ben Venuti,Takeaway/sandwich shop,7844,8 UPPER TACHBROOK STREET,,LONDON,SW1V 1SH,4,fhrs_4_en-GB,2022-07-25,533,Westminster,10,10,0,FALSE,-0.1399461,51.4932958,
412315,00761/0012/0/000,Benares Restaurant & Bar,Restaurant/Cafe/Canteen,1,12 BERKELEY SQUARE,,LONDON,W1J 6EB,5,fhrs_5_en-GB,2022-09-07,533,Westminster,5,0,0,FALSE,-0.1448838,51.5096958,
411130,00189/0062/0/000,Bengal Restaurant,Restaurant/Cafe/Canteen,1,62 PORCHESTER ROAD,,LONDON,W2 6ET,3,fhrs_3_en-GB,2022-05-13,533,Westminster,10,10,10,FALSE,-0.1887948,51.5184035,
413457,01201/0019/0/001,Benito'S,Restaurant/Cafe/Canteen,1,"GROUND, 19 NEW ROW",,LONDON,WC2N 4LA,3,fhrs_3_en-GB,2021-12-01,533,Westminster,10,10,10,FALSE,-0.1260002,51.5112211,
1349127,18/00110/COMM,Bennett Hay Ltd,Restaurant/Cafe/Canteen,1,"(INCLUDING FIRST FLOOR NO. 80) FIRST FLOOR, 100 VICTORIA STREET",,LONDON,SW1E 5JL,5,fhrs_5_en-GB,2022-01-25,533,Westminster,0,5,0,FALSE,,,
1590021,23/00066/COMM,Bennett Hay Ltd,Restaurant/Cafe/Canteen,1,72 WELBECK STREET,,LONDON,W1G 0AY,5,fhrs_5_en-GB,2023-03-09,533,Westminster,0,0,0,FALSE,-0.1488496,51.5160264,
1578891,00637/0028/0/000,Bennett Hay Ltd,Other catering premises,7841,"FORMER, 28 ST GEORGE STREET",,LONDON,,5,fhrs_5_en-GB,2022-12-05,533,Westminster,5,0,0,FALSE,,,
1149528,13/00275/COMM,Bennett Hay Ltd,Other catering premises,7841,"YORK HOUSE, 45 SEYMOUR STREET",,LONDON,W1H 7LX,5,fhrs_5_en-GB,2022-02-09,533,Westminster,0,5,5,FALSE,,,
413555,01265/0013/A/000,Bens Cookies,Restaurant/Cafe/Canteen,1,13A THE MARKET,COVENT GARDEN,LONDON,WC2E 8HD,5,fhrs_5_en-GB,2013-01-22,533,Westminster,0,5,5,FALSE,-0.1224447,51.5121715,
1253764,09/00092/COMM,Bens Cookies,Restaurant/Cafe/Canteen,1,355-361 OXFORD STREET,,LONDON,W1C 2JQ,5,fhrs_5_en-GB,2020-05-28,533,Westminster,5,5,5,FALSE,-0.1480521,51.5143681,
414767,12/00027/COMM,Bens Cookies,Restaurant/Cafe/Canteen,1,"BASEMENT AND GROUND FLOOR, 139 OXFORD STREET",,LONDON,W1D 2JB,5,fhrs_5_en-GB,2019-11-25,533,Westminster,5,5,5,FALSE,,,
1587804,23/00038/COMM,Bens Green Grocers,School/college/university,7845,"FOOD HALL, SELFRIDGES, 400 OXFORD STREET",,LONDON,W1A 1AB,AwaitingInspection,fhrs_awaitinginspection_en-GB,,533,Westminster,,,,FALSE,-0.1528138,51.5145871,
1302728,20/00566/COMM,Bens Green Grocers,Retailers - other,4613,"GROUND FLOOR, 80 WESTBOURNE GROVE",,LONDON,W2 5RT,4,fhrs_4_en-GB,2021-03-26,533,Westminster,5,0,10,FALSE,-0.1931516,51.5153952,
411677,00530/0276/0/000,Benson Pharmacy,Retailers - other,4613,276 HARROW ROAD,,LONDON,W2 5ES,Exempt,fhrs_exempt_en-GB,2004-09-28,533,Westminster,,,,FALSE,-0.1917475,51.521003,
414311,01598/0011/0/000,Bentley'S Oyster Bar & Grill,Restaurant/Cafe/Canteen,1,"GROUND FLOOR, 11-15 SWALLOW STREET",,LONDON,W1B 4DG,2,fhrs_2_en-GB,2023-03-08,533,Westminster,15,10,10,FALSE,-0.1377438,51.5095017,
412841,00943/0013/3/000,Benugo Limited,Restaurant/Cafe/Canteen,1,13-14 CURZON STREET,,LONDON,W1J 5HN,4,fhrs_4_en-GB,2022-10-24,533,Westminster,0,10,5,FALSE,-0.1471867,51.5069265,
706521,14/00250/COMM,Benugo Limited,Restaurant/Cafe/Canteen,1,54 VICTORIA STREET,,LONDON,SW1E 6AN,5,fhrs_5_en-GB,2023-01-16,533,Westminster,0,5,0,FALSE,-0.1368126,51.4977155,
956461,17/00120/COMM,Benugo Limited,Restaurant/Cafe/Canteen,1,79 WIGMORE STREET,,LONDON,W1U 1DL,5,fhrs_5_en-GB,2020-03-14,533,Westminster,5,5,5,FALSE,-0.15104922,51.51595614,
769741,14/00118/COMM,Benugo Limited,Takeaway/sandwich shop,7844,"BENUGO KIOSK HOME GREEN, CHESTER ROAD",,LONDON,NW1 4NR,5,fhrs_5_en-GB,2020-09-07,533,Westminster,5,0,0,FALSE,-0.1561513,51.5261793,
772759,14/00196/COMM,Benugo Limited,Restaurant/Cafe/Canteen,1,"BOATHOUSE CAFE, OUTER CIRCLE",REGENTS PARK,LONDON,NW1 4RL,5,fhrs_5_en-GB,2020-09-07,533,Westminster,5,0,0,FALSE,,,
1036535,18/00035/COMM,Benugo Limited,Takeaway/sandwich shop,7844,"CLIVE HOUSE, 70-78 PETTY FRANCE",,LONDON,SW1H 9EX,5,fhrs_5_en-GB,2022-11-15,533,Westminster,5,0,5,FALSE,-0.1359099,51.4990051,
1088669,18/00389/COMM,Benugo Limited,Takeaway/sandwich shop,7844,"GROUND FLOOR PART LEFT, 40 GROSVENOR PLACE",,LONDON,SW1X 7EN,5,fhrs_5_en-GB,2020-09-08,533,Westminster,0,5,5,FALSE,-0.1477563,51.4985722,
413633,01314/0001/0/000,Benugo Limited,Restaurant/Cafe/Canteen,1,"GROUND FLOOR TO FIFTH FLOOR, 1 EMBANKMENT PLACE",,LONDON,WC2N 6NN,5,fhrs_5_en-GB,2019-12-31,533,Westminster,0,0,0,FALSE,,,
938973,16/00497/COMM,Benugo Limited,Restaurant/Cafe/Canteen,1,"GROUND FLOOR TO TOP FLOOR, 39 WELLINGTON STREET",,LONDON,WC2E 7BB,5,fhrs_5_en-GB,2023-03-14,533,Westminster,5,5,0,FALSE,-0.1212216,51.5121249,
977258,17/00198/COMM,Benugo Limited,Restaurant/Cafe/Canteen,1,"JOHN LEWIS, 278-306 OXFORD STREET",,LONDON,W1C 1DX,5,fhrs_5_en-GB,2022-10-05,533,Westminster,0,0,0,FALSE,-0.14451094,51.51499798,
732354,00618/2001/2/000,Benugo Limited,Restaurant/Cafe/Canteen,1,"LONDON COLISEUM, 32-35 ST MARTIN'S LANE",,LONDON,WC2N 4ES,5,fhrs_5_en-GB,2023-04-05,533,Westminster,5,5,0,FALSE,-0.12685481,51.51007649,
1214655,19/00599/COMM,Benugo Limited,Takeaway/sandwich shop,7844,"LONDON ZOO, OUTER CIRCLE",REGENTS PARK,LONDON,NW1 4RY,5,fhrs_5_en-GB,2023-03-14,533,Westminster,0,0,0,FALSE,-0.1537038,51.5360486,
1088666,18/00386/COMM,Benugo Limited,Takeaway/sandwich shop,7844,"PARK HOUSE, 116 PARK STREET",,LONDON,W1K 6AF,4,fhrs_4_en-GB,2019-10-16,533,Westminster,5,0,10,FALSE,,,
924664,16/00423/COMM,Benugo Limited,Retailers - other,4613,"REFRESHMENT KIOSK ST JAMES'S P, HORSE GUARDS ROAD",,LONDON,SW1A 2BJ,4,fhrs_4_en-GB,2018-12-11,533,Westminster,0,10,5,FALSE,-0.1317186,51.5039023,
1370179,21/00298/COMM,Benugo Limited,Restaurant/Cafe/Canteen,1,"SERPENTINE GALLERY PAVILION, SERPENTINE GALLERY KENSINGTON GARDENS, EXHIBITION ROAD",,LONDON,W2 3XA,5,fhrs_5_en-GB,2021-09-21,533,Westminster,0,0,0,FALSE,-0.174983,51.5047904,
1518670,22/00338/COMM,Benugo Limited,Restaurant/Cafe/Canteen,1,"SERPENTINE SACKLER GALLERY, WEST CARRIAGE DRIVE",,LONDON,W2 2AR,5,fhrs_5_en-GB,2022-06-07,533,Westminster,5,5,5,FALSE,,,
780908,15/00138/COMM,Benugo Limited,Restaurant/Cafe/Canteen,1,THE ESPRESSO BAR,REGENTS PARK,LONDON,NW1 4NU,5,fhrs_5_en-GB,2022-04-30,533,Westminster,0,5,5,FALSE,-0.1488955,51.5286197,
624266,13/00071/COMM,Benugo Limited,Retailers - other,4613,WESTMINSTER ABBEY,,LONDON,SW1P 3PP,5,fhrs_5_en-GB,2022-10-12,533,Westminster,0,5,0,FALSE,,,
1368045,21/00267/COMM,Benugo@Van Gogh Alive,Takeaway/sandwich shop,7844,"ALBERT MEMORIAL, KENSINGTON GORE",,LONDON,SW7 2AP,4,fhrs_4_en-GB,2021-09-24,533,Westminster,5,10,5,FALSE,,,
1335535,00682/0034/0/000,Benvenuti,Restaurant/Cafe/Canteen,1,34 UPPER TACHBROOK STREET,,LONDON,SW1V 1SW,5,fhrs_5_en-GB,2021-05-10,533,Westminster,5,0,5,FALSE,-0.139325,51.4926295,
560389,01524/0027/0/000,Berenjak,Restaurant/Cafe/Canteen,1,27 ROMILLY STREET,,LONDON,W1D 5AL,5,fhrs_5_en-GB,2023-03-27,533,Westminster,5,5,5,FALSE,,,
413202,01084/4000/0/000,Berkeley Court Pharmacy,Retailers - other,4613,"BERKELEY COURT PHARMACY, MELCOMBE STREET",,LONDON,NW1 6AE,Exempt,fhrs_exempt_en-GB,,533,Westminster,,,,FALSE,-0.158229,51.5225408,
412145,00683/0003/0/000,Berry Bros & Rudd,Other catering premises,7841,3 ST JAMES'S STREET,,LONDON,SW1A 1EG,4,fhrs_4_en-GB,2022-01-25,533,Westminster,0,5,10,FALSE,-0.1380347,51.5055495,
1398547,00337/0001/0/000,Bessborough Day Nursery,Restaurant/Cafe/Canteen,1,"DAY NURSERY, 1 BESSBOROUGH STREET",,LONDON,SW1V 2JD,5,fhrs_5_en-GB,2022-11-29,533,Westminster,5,5,5,FALSE,,,
411681,00530/0332/0/000,Best Buy,Retailers - other,4613,332 HARROW ROAD,,LONDON,W9 2HP,4,fhrs_4_en-GB,2023-03-16,533,Westminster,5,5,10,FALSE,-0.1935914,51.5224882,
1375997,21/00357/COMM,Best Mart,Retailers - other,4613,"UNIT 29, TROCADERO, 13 COVENTRY STREET",,LONDON,W1D 7AB,3,fhrs_3_en-GB,2022-12-13,533,Westminster,10,10,10,FALSE,,,
1221025,20/00051/COMM,Best Western,Hotel/bed & breakfast/guest house,7842,10-12 ST GEORGE'S DRIVE,,LONDON,SW1V 4BJ,5,fhrs_5_en-GB,2023-02-08,533,Westminster,0,5,0,FALSE,-0.146005,51.4920249,
410944,00129/0001/0/000,Best Western - Phoenix Hotel,Hotel/bed & breakfast/guest house,7842,1-8 KENSINGTON GARDENS SQUARE,,LONDON,W2 4BH,5,fhrs_5_en-GB,2023-03-17,533,Westminster,5,5,0,FALSE,-0.1892168,51.513581,
413389,01176/0012/0/000,Best Western Mornington Hotel,Hotel/bed & breakfast/guest house,7842,12 LANCASTER GATE,,LONDON,W2 3LG,5,fhrs_5_en-GB,2022-08-10,533,Westminster,5,5,5,FALSE,-0.1783226,51.5120994,
413076,01044/0060/0/000,Best Western Victoria Palace,Hotel/bed & breakfast/guest house,7842,"HAMILTON HOUSE HOTEL, 60-64 WARWICK WAY",,LONDON,SW1V 1SA,4,fhrs_4_en-GB,2023-02-09,533,Westminster,0,10,0,FALSE,,,
412910,00974/4000/0/000,Beveridge Cafe,Other catering premises,7841,"CONCESSION 1, 13 HOUGHTON STREET",,LONDON,WC2A 2AE,5,fhrs_5_en-GB,2022-11-10,533,Westminster,0,5,0,FALSE,,,
414278,01585/0142/0/000,Beverley House Hotel,Hotel/bed & breakfast/guest house,7842,142 SUSSEX GARDENS,,LONDON,W2 1UB,4,fhrs_4_en-GB,2009-09-08,533,Westminster,5,5,10,FALSE,-0.1727228,51.5155374,
1398560,21/00542/COMM,Bibi,Restaurant/Cafe/Canteen,1,41 NORTH AUDLEY STREET,,LONDON,W1K 6ZP,4,fhrs_4_en-GB,2021-10-13,533,Westminster,5,5,10,FALSE,-0.1533753,51.5124646,
413782,01382/0011/0/002,Bibimbap Restaurant,Restaurant/Cafe/Canteen,1,"GROUND FLOOR, 11 GREEK STREET",,LONDON,W1D 4DJ,4,fhrs_4_en-GB,2022-05-10,533,Westminster,5,5,10,FALSE,,,
1361449,21/00236/COMM,Bibi'S,Restaurant/Cafe/Canteen,1,18 SMITH'S COURT,,LONDON,W1D 7DW,4,fhrs_4_en-GB,2023-01-10,533,Westminster,10,0,10,FALSE,-0.1351417,51.5114657,
1215111,20/00020/COMM,BiBi's Kitchen,Takeaway/sandwich shop,7844,25 ROSE STREET,,LONDON,WC2E 9EA,5,fhrs_5_en-GB,2022-06-28,533,Westminster,0,0,0,FALSE,-0.1262148,51.511962,
412176,00688/0052/0/000,Big Bite,Restaurant/Cafe/Canteen,1,52 WARDOUR STREET,,LONDON,W1D 6QU,3,fhrs_3_en-GB,2015-01-30,533,Westminster,5,10,10,FALSE,-0.132884,51.512401,
1104417,19/00045/COMM,Big Mama'S Kitchen,Restaurant/Cafe/Canteen,1,"GROUND FLOOR, 604 HARROW ROAD",,LONDON,W10 4NJ,5,fhrs_5_en-GB,2021-07-21,533,Westminster,0,0,0,FALSE,-0.2070111,51.5265429,
412355,00793/0093/0/000,Big Pizza,Restaurant/Cafe/Canteen,1,"BASEMENT AND GROUND FLOOR, 93 CHIPPENHAM ROAD",,LONDON,W9 2AB,3,fhrs_3_en-GB,2021-10-05,533,Westminster,10,10,10,FALSE,-0.1969425,51.5274227,
715210,00859/0045/0/000,Biju Bubble Tea Room,Restaurant/Cafe/Canteen,1,45 OLD COMPTON STREET,,LONDON,W1D 6HQ,5,fhrs_5_en-GB,2018-09-12,533,Westminster,5,5,5,FALSE,,,
1314603,20/00579/COMM,Bike-Drop,Takeaway/sandwich shop,7844,48 HAYMARKET,,LONDON,SW1Y 4SE,5,fhrs_5_en-GB,2021-06-17,533,Westminster,0,0,5,FALSE,-0.1331637,51.5094379,
1314598,20/00571/COMM,Bike-Drop,Takeaway/sandwich shop,7844,56-60 CONDUIT STREET,,LONDON,W1S 2YZ,5,fhrs_5_en-GB,2021-06-17,533,Westminster,0,0,5,FALSE,-0.141314,51.512427,
414732,10/00141/COMM,Bills Cafe,Retailers - other,4613,13 SLINGSBY PLACE,,LONDON,WC2E 9AB,5,fhrs_5_en-GB,2022-07-23,533,Westminster,0,0,0,FALSE,-0.12602298,51.51241322,
780882,01123/0119/0/000,Bills Restaurant,Restaurant/Cafe/Canteen,1,119-121 BAKER STREET,,LONDON,W1U 6RY,5,fhrs_5_en-GB,2022-09-23,533,Westminster,0,0,0,FALSE,-0.1575162,51.5216304,
412215,00700/0021/0/000,Bills Restaurant,Restaurant/Cafe/Canteen,1,21 WELLINGTON STREET,,LONDON,WC2E 7DN,5,fhrs_5_en-GB,2020-03-31,533,Westminster,0,0,0,FALSE,-0.1199705,51.5117092,
732363,12/00118/COMM,Bill'S Soho Restaurant,Restaurant/Cafe/Canteen,1,36-44 BREWER STREET,,LONDON,W1F 9TB,5,fhrs_5_en-GB,2021-11-02,533,Westminster,5,5,0,FALSE,-0.1352573,51.5118093,
414607,06/00035/COMM,Bill'S Victoria Restaurant,Restaurant/Cafe/Canteen,1,6 CARDINAL WALK,,LONDON,SW1E 5JE,5,fhrs_5_en-GB,2022-04-25,533,Westminster,5,5,5,FALSE,-0.1412625,51.4974304,
1592662,23/00085/COMM,Billy'S Cafe,Restaurant/Cafe/Canteen,1,119 SHIRLAND ROAD,,LONDON,W9 2EW,0,fhrs_0_en-GB,2023-02-10,533,Westminster,15,20,20,FALSE,-0.1928027,51.5263878,
1415417,01381/0030/0/000,Bilmonte,Restaurant/Cafe/Canteen,1,30 GREAT WINDMILL STREET,,LONDON,W1D 7LW,4,fhrs_4_en-GB,2022-01-27,533,Westminster,5,5,10,FALSE,-0.1347602,51.5116305,
1580999,22/00645/COMM,Biorebalance,Importers/Exporters,14,"FIRST FLOOR, 85 GREAT PORTLAND STREET",,LONDON,W1W 7LT,Exempt,fhrs_exempt_en-GB,,533,Westminster,,,,FALSE,,,
413706,01358/0063/0/000,Birley Development Kitchen,Other catering premises,7841,63-65 GOLDNEY ROAD,,LONDON,W9 2AR,5,fhrs_5_en-GB,2022-02-08,533,Westminster,0,5,5,FALSE,-0.1968842,51.5248859,
1450584,00014/0015/0/000,Biryani Guys,Restaurant/Cafe/Canteen,1,15 BELL STREET,,LONDON,NW1 5BY,5,fhrs_5_en-GB,2022-05-30,533,Westminster,5,5,5,FALSE,-0.17005,51.5207294,
1131376,19/00143/COMM,Biscottilicious Ltd,Other catering premises,7841,,,,,5,fhrs_5_en-GB,2020-03-16,533,Westminster,0,0,0,FALSE,,,
1416961,21/00708/COMM,Biscuiteers Belgravia,Restaurant/Cafe/Canteen,1,14-15 ECCLESTON YARD,CITY OF WESTMINSTER,LONDON,SW1W 9AZ,5,fhrs_5_en-GB,2022-03-15,533,Westminster,0,0,0,FALSE,-0.1491396,51.493682,
999549,01271/0081/0/000,Bishops Cut Price,Takeaway/sandwich shop,7844,81 BISHOP'S BRIDGE ROAD,,LONDON,W2 6BG,5,fhrs_5_en-GB,2017-08-07,533,Westminster,0,0,0,FALSE,-0.1878302,51.5158347,
1494510,22/00196/COMM,Bismillah Halal Bazaar,Retailers - other,4613,590 HARROW ROAD,,LONDON,W10 4NJ,4,fhrs_4_en-GB,2022-04-13,533,Westminster,5,5,10,FALSE,-0.2063655,51.5264611,
413662,01333/0027/0/000,Bistro 1,Restaurant/Cafe/Canteen,1,27 FRITH STREET,,LONDON,W1D 5LE,4,fhrs_4_en-GB,2022-08-18,533,Westminster,10,0,10,FALSE,,,
772594,00965/0034/0/000,Bistrot Bagatelle,Restaurant/Cafe/Canteen,1,"BASEMENT AND GROUND FLOOR, DOVER HOUSE, 34 DOVER STREET",,LONDON,W1S 4NG,5,fhrs_5_en-GB,2018-10-08,533,Westminster,5,0,5,FALSE,-0.1429758,51.5087753,
413356,01158/0018/0/001,Bizzarro Restaurant,Restaurant/Cafe/Canteen,1,18-22 CRAVEN ROAD,,LONDON,W2 3PX,Exempt,fhrs_exempt_en-GB,2020-09-14,533,Westminster,,,,FALSE,-0.1771422,51.5149497,
1531158,22/00461/COMM,BKC,Restaurant/Cafe/Canteen,1,"BASEMENT AND GROUND FLOOR, 7 EDGWARE ROAD",,LONDON,W2 2ER,2,fhrs_2_en-GB,2022-11-02,533,Westminster,10,15,10,FALSE,,,
1619587,H848EC-CMCKBS-NB6D57,Black Bear Burger,Restaurant/Cafe/Canteen,1,"MARKET HALL VICTORIA, 191 VICTORIA STREET",,LONDON,SW1E 5NE,AwaitingInspection,fhrs_awaitinginspection_en-GB,,533,Westminster,,,,FALSE,-0.1443307,51.4963598,
413658,01333/0023/0/001,Black Book,Restaurant/Cafe/Canteen,1,"BASEMENT, 23 FRITH STREET",,LONDON,W1D 4RR,4,fhrs_4_en-GB,2023-01-19,533,Westminster,5,5,10,FALSE,,,
1432425,21/00833/COMM,Black Horse,Pub/bar/nightclub,7843,6 RATHBONE PLACE,,LONDON,W1T 1HL,5,fhrs_5_en-GB,2022-02-01,533,Westminster,5,5,5,FALSE,-0.132952,51.5167276,
1396528,21/00520/COMM,Black Sheep Coffee,Restaurant/Cafe/Canteen,1,10 ELIZABETH STREET,,LONDON,SW1W 9RB,5,fhrs_5_en-GB,2021-09-07,533,Westminster,0,0,5,FALSE,,,
1090345,18/00418/COMM,Black Sheep Coffee,Restaurant/Cafe/Canteen,1,189 VICTORIA STREET,,LONDON,SW1E 5NE,5,fhrs_5_en-GB,2019-10-14,533,Westminster,0,5,5,FALSE,-0.143664,51.4964572,
1602044,23/00112/COMM,Black Sheep Coffee,Restaurant/Cafe/Canteen,1,425 STRAND,,LONDON,WC2R 0QE,5,fhrs_5_en-GB,2023-04-27,533,Westminster,0,5,5,FALSE,-0.1237266,51.509737,
1355679,21/00185/COMM,Black Sheep Coffee,Restaurant/Cafe/Canteen,1,"BAKER STREET STATION, MARYLEBONE ROAD",,LONDON,NW1 5LA,5,fhrs_5_en-GB,2021-10-25,533,Westminster,5,0,0,FALSE,-0.156879,51.5231311,
854225,16/00104/COMM,Black Sheep Coffee,Restaurant/Cafe/Canteen,1,"SHOP 4, GREAT PORTLAND STREET STATION, GREAT PORTLAND STREET",,LONDON,W1W 5PW,5,fhrs_5_en-GB,2019-12-09,533,Westminster,0,0,0,FALSE,-0.143936,51.5237903,
1402131,21/00568/COMM,Black Sheep Coffee,Restaurant/Cafe/Canteen,1,"UNIT 4, 2 KINGDOM STREET",,LONDON,W2 6BD,5,fhrs_5_en-GB,2021-10-25,533,Westminster,0,0,5,FALSE,-0.181415,51.5194393,
1396520,21/00510/COMM,Blackett Caf?,Restaurant/Cafe/Canteen,1,"BLACKETT BUILDING IMPERIAL COLLEGE, PRINCE CONSORT ROAD",,LONDON,SW7 2AZ,5,fhrs_5_en-GB,2021-10-27,533,Westminster,0,5,0,FALSE,-0.1775049,51.499371,
1435822,21/00851/COMM,Blacklock,Restaurant/Cafe/Canteen,1,16A BEDFORD STREET,,LONDON,WC2E 9HE,5,fhrs_5_en-GB,2022-03-09,533,Westminster,5,0,5,FALSE,-0.1246185,51.5106406,
797954,15/00214/COMM,Blacklock Soho,Restaurant/Cafe/Canteen,1,"BASEMENT, 24 GREAT WINDMILL STREET",,LONDON,W1D 7LG,3,fhrs_3_en-GB,2023-04-13,533,Westminster,,,,FALSE,-0.1345675,51.5117624,
412882,00953/0067/0/002,Black'S Club,Restaurant/Cafe/Canteen,1,"BASEMENT TO FIRST FLOOR, 67 DEAN STREET",,LONDON,W1D 4QH,4,fhrs_4_en-GB,2023-01-05,533,Westminster,0,10,10,FALSE,,,
410822,00012/0122/0/000,Blades Hotel,Hotel/bed & breakfast/guest house,7842,122 BELGRAVE ROAD,,LONDON,SW1V 2BL,4,fhrs_4_en-GB,2019-11-25,533,Westminster,10,5,5,FALSE,-0.1368058,51.4894061,
411473,00440/0025/0/000,Blakemore Hotel,Hotel/bed & breakfast/guest house,7842,25-31 LEINSTER GARDENS,,LONDON,W2 3AN,4,fhrs_4_en-GB,2023-02-17,533,Westminster,5,10,5,FALSE,-0.18358628,51.51523281,
411715,00530/0496/0/000,Blakes,Retailers - other,4613,"BASEMENT AND GROUND FLOOR, 496 HARROW ROAD",,LONDON,W9 3QA,3,fhrs_3_en-GB,2023-02-13,533,Westminster,10,5,10,FALSE,-0.202224,51.5247341,
411180,00243/0203/0/000,Blakes Bakery,Retailers - other,4613,203 Shirland Road,London,,W9 2EX,3,fhrs_3_en-GB,2023-01-17,533,Westminster,,,,TRUE,-0.196849,51.527798,
546028,01560/0029/0/000,Blanche Eatery,Restaurant/Cafe/Canteen,1,29 STRUTTON GROUND,,LONDON,SW1P 2HY,5,fhrs_5_en-GB,2023-01-12,533,Westminster,5,5,5,FALSE,-0.1336069,51.4971879,
412849,00945/0009/0/005,Blanchette,Restaurant/Cafe/Canteen,1,"BASEMENT AND GROUND FLOOR, 9 D'ARBLAY STREET",,LONDON,W1F 8DR,5,fhrs_5_en-GB,2022-10-06,533,Westminster,5,5,5,FALSE,-0.1361048,51.5147004,
902399,16/00250/COMM,Blandford Comptoir,Restaurant/Cafe/Canteen,1,"BASEMENT AND GROUND FLOOR, 1 BLANDFORD STREET",,LONDON,W1U 3DA,2,fhrs_2_en-GB,2023-01-18,533,Westminster,15,10,10,FALSE,,,
413592,01272/0025/0/001,Blandford Fruit Stores,Retailers - other,4613,"GROUND FLOOR, 25 BLANDFORD STREET",,LONDON,W1U 3DN,5,fhrs_5_en-GB,2019-11-25,533,Westminster,5,5,5,FALSE,-0.1533978,51.5183192,
413342,01153/0080/0/000,Blandford Hotel,Hotel/bed & breakfast/guest house,7842,80 CHILTERN STREET,,LONDON,W1U 5AF,3,fhrs_3_en-GB,2022-09-21,533,Westminster,10,10,10,FALSE,-0.1557725,51.5212612,
1540581,22/00550/COMM,Blank Street,Restaurant/Cafe/Canteen,1,1 OLD QUEBEC STREET,,LONDON,W1H 7AF,5,fhrs_5_en-GB,2022-10-12,533,Westminster,0,0,0,FALSE,-0.1579925,51.5137308,
1609830,23/00180/COMM,Blank Street,Restaurant/Cafe/Canteen,1,159 PRAED STREET,,LONDON,W2 1RL,AwaitingInspection,fhrs_awaitinginspection_en-GB,,533,Westminster,,,,FALSE,-0.1745212,51.515979,
1576240,22/00746/COMM,Blank Street,Restaurant/Cafe/Canteen,1,22 NOEL STREET,,LONDON,W1F 8GS,5,fhrs_5_en-GB,2023-01-31,533,Westminster,0,5,0,FALSE,-0.1359181,51.5150392,
1531157,22/00460/COMM,Blank Street,Restaurant/Cafe/Canteen,1,"UNIT 2, 65-72 STRAND",,LONDON,WC2N 5LR,5,fhrs_5_en-GB,2022-08-15,533,Westminster,5,5,5,FALSE,-0.1227317,51.509748,
956460,17/00119/COMM,Bleecker Victoria,Restaurant/Cafe/Canteen,1,"BASEMENT FLOOR AND GROUND FLOOR, 205 VICTORIA STREET",,LONDON,SW1E 5NE,5,fhrs_5_en-GB,2023-04-18,533,Westminster,0,0,5,FALSE,-0.1446006,51.496454,
1338945,21/00109/COMM,Blenheim Vintners,Retailers - other,4613,4 BLENHEIM TERRACE,,LONDON,NW8 0EB,5,fhrs_5_en-GB,2021-04-09,533,Westminster,0,0,5,FALSE,-0.1817905,51.5353812,
1526579,22/00428/COMM,Block Soho,Restaurant/Cafe/Canteen,1,2 ST ANNE'S COURT,,LONDON,W1F 0AZ,5,fhrs_5_en-GB,2022-12-12,533,Westminster,,,,FALSE,-0.1334612,51.5144965,
1474147,01623/0011/0/000,Blondies Kitchen,Restaurant/Cafe/Canteen,1,11 THE PIAZZA,COVENT GARDEN,LONDON,WC2E 8RD,5,fhrs_5_en-GB,2022-03-10,533,Westminster,0,0,0,FALSE,-0.1229392,51.5120625,
1013745,17/00409/COMM,Blondies Kitchen,Retailers - other,4613,"FOOD HALL, SELFRIDGES, 400 OXFORD STREET",,LONDON,W1A 1AB,5,fhrs_5_en-GB,2021-09-17,533,Westminster,0,0,0,FALSE,-0.1528138,51.5145871,
1396516,21/00504/COMM,Blue Apple Catering,Other catering premises,7841,19 ST JAMES'S SQUARE,,LONDON,SW1Y 4JE,5,fhrs_5_en-GB,2021-09-07,533,Westminster,0,0,0,FALSE,-0.1361294,51.5066883,
960387,17/00133/COMM,Blue Lotus Inspirations,Other catering premises,7841,,,,,5,fhrs_5_en-GB,2019-12-09,533,Westminster,5,5,0,FALSE,,,
410858,000530/0268/0/000,Blue Nile Bakery,Retailers - other,4613,268 HARROW ROAD,,LONDON,W2 5ES,4,fhrs_4_en-GB,2022-01-18,533,Westminster,0,10,10,FALSE,-0.1915087,51.5208464,
1053892,18/00129/COMM,Blue Posts Public House,Pub/bar/nightclub,7843,18 KINGLY STREET,,LONDON,W1B 5PX,5,fhrs_5_en-GB,2023-02-01,533,Westminster,0,0,0,FALSE,-0.139393,51.5128822,
411338,00335/0022/0/000,Blue Posts Public House,Restaurant/Cafe/Canteen,1,22 BERWICK STREET,,LONDON,W1F 0QA,4,fhrs_4_en-GB,2018-03-12,533,Westminster,0,10,5,FALSE,,,
414109,01532/0028/0/000,Blue Posts Public House,Restaurant/Cafe/Canteen,1,28 RUPERT STREET,,LONDON,W1D 6DJ,5,fhrs_5_en-GB,2022-04-14,533,Westminster,5,5,5,FALSE,,,
428164,01651/0006/0/000,Blue Posts Public House,Restaurant/Cafe/Canteen,1,"BLUE POST PUBLIC HOUSE, 6 BENNET STREET",,LONDON,SW1A 1RP,4,fhrs_4_en-GB,2019-11-05,533,Westminster,0,10,5,FALSE,,,
414273,01585/0133/0/000,Bluedaws Hotel,Hotel/bed & breakfast/guest house,7842,133-135 SUSSEX GARDENS,,LONDON,W2 2RX,4,fhrs_4_en-GB,2022-03-23,533,Westminster,0,10,10,FALSE,,,
414333,01612/0042/0/000,Bmi Weymouth Hospital,Restaurant/Cafe/Canteen,1,42-46 WEYMOUTH STREET,,LONDON,W1G 6NP,5,fhrs_5_en-GB,2022-08-26,533,Westminster,0,5,5,FALSE,-0.1506687,51.5202187,
411460,00434/0007/0/001,Bnp Paribas,Restaurant/Cafe/Canteen,1,"FIRST FLOOR TO FOURTH FLOOR, 7 HAREWOOD AVENUE",,LONDON,NW1 6JB,5,fhrs_5_en-GB,2019-03-19,533,Westminster,0,5,5,FALSE,,,
413422,01184/2001/2/000,Boat House,Other catering premises,7841,,,,,5,fhrs_5_en-GB,2012-07-12,533,Westminster,0,0,0,FALSE,,,
412139,00679/0001/0/003,Bob Bob Ricard,Restaurant/Cafe/Canteen,1,"GROUND FLOOR, 1-3 UPPER JAMES STREET",,LONDON,W1F 9DF,5,fhrs_5_en-GB,2022-11-10,533,Westminster,0,0,0,FALSE,-0.1371693,51.5122803,
682042,01090/0012/0/001,Bocca Di Lupo,Restaurant/Cafe/Canteen,1,"BASEMENT AND GROUND FLOOR, 12 ARCHER STREET",,LONDON,W1D 7BB,4,fhrs_4_en-GB,2022-11-29,533,Westminster,10,5,5,FALSE,-0.1339803,51.5116721,
751057,13/00223/COMM,Bocconcino,Restaurant/Cafe/Canteen,1,"GROUND FLOOR, 19 BERKELEY STREET",,LONDON,W1J 8ED,5,fhrs_5_en-GB,2023-01-23,533,Westminster,,,,FALSE,-0.1435489,51.5088563,
414507,03/00814/COMM,Bodean'S Bbq Restaurant,Restaurant/Cafe/Canteen,1,10 POLAND STREET,,LONDON,W1F 8PZ,3,fhrs_3_en-GB,2022-09-30,533,Westminster,10,10,10,FALSE,-0.13690968,51.51449006,
850612,16/00091/COMM,Bodean'S Covent Garden,Restaurant/Cafe/Canteen,1,"BASEMENT AND GROUND FLOOR, 25 CATHERINE STREET",,LONDON,WC2B 5JS,5,fhrs_5_en-GB,2018-10-16,533,Westminster,5,5,5,FALSE,-0.1205144,51.5125003,
411419,00404/0013/0/000,Boisdale Plc,Restaurant/Cafe/Canteen,1,"BASEMENT TO GROUND FLOOR AND PART FIRST FLOOR, 13 ECCLESTON STREET",,LONDON,SW1W 9LX,4,fhrs_4_en-GB,2022-04-29,533,Westminster,5,5,10,FALSE,-0.1481324,51.4942707,
